time,pitch,roll,heading,aileronInput,elevatorInput,Baro_altitude,Baro_vertical_speed,Baro_temperature,GPS_locked,GPS_coord_x,GPS_coord_y,GPS_altitude,GPS_heading,GPS_speed,GPS_satellites,aileronTrim,elevatorTrim
0.248,4.17,137.5,168.23,-1.0,0.0,15.96,-0.02,29.87,0,0.0,0.0,0.0,0.0,0.0,0,0.0,0.0
0.448,4.74,137.5,191.51,-1.0,0.0,15.97,-0.01,29.88,0,0.0,0.0,0.0,0.0,0.0,0,0.0,0.0
0.649,4.8,137.5,194.01,-1.0,0.0,16.02,0.04,29.89,0,0.0,0.0,0.0,0.0,0.0,0,0.0,0.0
0.849,4.81,137.5,194.28,-1.0,0.0,16.0,0.01,29.9,0,0.0,0.0,0.0,0.0,0.0,0,0.0,0.0
1.049,4.81,137.5,194.31,-1.0,0.0,16.04,0.04,29.9,0,0.0,0.0,0.0,0.0,0.0,0,0.0,0.0
1.249,4.81,137.5,194.31,-1.0,0.0,16.09,0.09,29.91,0,0.0,0.0,0.0,0.0,0.0,0,0.0,0.0
1.449,4.81,137.5,194.31,-1.0,0.0,16.09,0.06,29.92,0,0.0,0.0,0.0,0.0,0.0,0,0.0,0.0
1.649,4.81,137.5,194.31,-1.0,0.0,16.15,0.11,29.92,0,0.0,0.0,0.0,0.0,0.0,0,0.0,0.0
1.849,4.81,137.5,194.31,-1.0,0.0,16.13,0.07,29.93,0,0.0,0.0,0.0,0.0,0.0,0,0.0,0.0
2.049,4.81,137.5,194.31,-1.0,0.0,16.17,0.1,29.93,0,0.0,0.0,0.0,0.0,0.0,0,0.0,0.0
2.249,4.81,137.5,194.31,-1.0,0.0,16.19,0.09,29.93,0,0.0,0.0,0.0,0.0,0.0,0,0.0,0.0
2.449,4.81,137.5,194.31,-1.0,0.0,16.2,0.08,29.93,0,0.0,0.0,0.0,0.0,0.0,0,0.0,0.0
2.649,4.81,137.5,194.31,-1.0,0.0,16.24,0.11,29.94,0,0.0,0.0,0.0,0.0,0.0,0,0.0,0.0
2.849,4.81,137.5,194.31,-1.0,0.0,16.21,0.06,29.94,0,0.0,0.0,0.0,0.0,0.0,0,0.0,0.0
3.049,4.81,137.5,194.31,-1.0,0.0,16.2,0.04,29.94,0,0.0,0.0,0.0,0.0,0.0,0,0.0,0.0
3.249,4.81,137.5,194.31,-1.0,0.0,16.25,0.08,29.94,0,0.0,0.0,0.0,0.0,0.0,0,0.0,0.0
3.449,4.81,137.5,194.31,-1.0,0.0,16.25,0.06,29.94,0,0.0,0.0,0.0,0.0,0.0,0,0.0,0.0
3.649,4.81,137.5,194.31,-1.0,0.0,16.29,0.09,29.94,0,0.0,0.0,0.0,0.0,0.0,0,0.0,0.0
3.849,4.81,137.5,194.31,-1.0,0.0,16.24,0.02,29.95,0,0.0,0.0,0.0,0.0,0.0,0,0.0,0.0
4.049,4.81,137.5,194.31,-1.0,0.0,16.29,0.06,29.95,0,0.0,0.0,0.0,0.0,0.0,0,0.0,0.0
4.249,4.81,137.5,194.31,-1.0,0.0,16.31,0.07,29.95,0,0.0,0.0,0.0,0.0,0.0,0,0.0,0.0
4.449,4.81,137.5,194.31,-1.0,0.0,16.28,0.03,29.95,0,0.0,0.0,0.0,0.0,0.0,0,0.0,0.0
4.649,4.81,137.5,194.31,-1.0,0.0,16.31,0.05,29.95,0,0.0,0.0,0.0,0.0,0.0,0,0.0,0.0
4.849,4.81,137.5,194.31,-1.0,0.0,16.32,0.05,29.95,0,0.0,0.0,0.0,0.0,0.0,0,0.0,0.0
5.049,4.81,137.5,194.31,-1.0,0.0,16.33,0.05,29.95,0,0.0,0.0,0.0,0.0,0.0,0,0.0,0.0
5.249,4.81,137.5,194.31,-1.0,0.0,16.29,-0.0,29.95,0,0.0,0.0,0.0,0.0,0.0,0,0.0,0.0
5.449,4.81,137.5,194.31,-1.0,0.0,16.27,-0.02,29.95,0,0.0,0.0,0.0,0.0,0.0,0,0.0,0.0
5.649,4.81,137.5,194.31,-1.0,0.0,16.27,-0.02,29.95,0,0.0,0.0,0.0,0.0,0.0,0,0.0,0.0
5.849,4.81,137.5,194.31,-1.0,0.0,16.24,-0.04,29.95,0,0.0,0.0,0.0,0.0,0.0,0,0.0,0.0
6.049,4.81,137.5,194.31,-1.0,0.0,16.28,0.0,29.95,0,0.0,0.0,0.0,0.0,0.0,0,0.0,0.0
6.249,4.81,137.5,194.31,-1.0,0.0,16.26,-0.02,29.96,0,0.0,0.0,0.0,0.0,0.0,0,0.0,0.0
6.449,4.81,137.5,194.31,-1.0,0.0,16.31,0.03,29.96,0,0.0,0.0,0.0,0.0,0.0,0,0.0,0.0
6.649,4.81,137.5,194.31,-1.0,0.0,16.26,-0.02,29.96,0,0.0,0.0,0.0,0.0,0.0,0,0.0,0.0
6.849,4.81,137.5,194.31,-1.0,0.0,16.25,-0.02,29.96,0,0.0,0.0,0.0,0.0,0.0,0,0.0,0.0
7.049,4.81,137.5,194.31,-1.0,0.0,16.26,-0.01,29.96,0,0.0,0.0,0.0,0.0,0.0,0,0.0,0.0
7.249,4.81,137.5,194.31,-1.0,0.0,16.25,-0.02,29.96,0,0.0,0.0,0.0,0.0,0.0,0,0.0,0.0
7.449,4.81,137.5,194.31,-1.0,0.0,16.26,-0.01,29.96,0,0.0,0.0,0.0,0.0,0.0,0,0.0,0.0
7.649,4.81,137.5,194.31,-1.0,0.0,16.29,0.02,29.96,0,0.0,0.0,0.0,0.0,0.0,0,0.0,0.0
7.849,4.81,137.5,194.31,-1.0,0.0,16.27,0.0,29.96,0,0.0,0.0,0.0,0.0,0.0,0,0.0,0.0
8.049,4.81,137.5,194.31,-1.0,0.0,16.33,0.06,29.96,0,0.0,0.0,0.0,0.0,0.0,0,0.0,0.0
8.249,4.81,137.5,194.31,-1.0,0.0,16.33,0.04,29.96,0,0.0,0.0,0.0,0.0,0.0,0,0.0,0.0
8.449,4.81,137.5,194.31,-1.0,0.0,16.29,-0.0,29.96,0,0.0,0.0,0.0,0.0,0.0,0,0.0,0.0
8.649,4.81,137.5,194.31,-1.0,0.0,16.28,-0.01,29.96,0,0.0,0.0,0.0,0.0,0.0,0,0.0,0.0
8.849,4.81,137.5,194.31,-1.0,0.0,16.29,0.01,29.96,0,0.0,0.0,0.0,0.0,0.0,0,0.0,0.0
9.049,4.81,137.5,194.31,-1.0,0.0,16.26,-0.03,29.97,0,0.0,0.0,0.0,0.0,0.0,0,0.0,0.0
9.249,4.81,137.5,194.31,-1.0,0.0,16.29,0.01,29.97,0,0.0,0.0,0.0,0.0,0.0,0,0.0,0.0
9.449,4.81,137.5,194.31,-1.0,0.0,16.29,0.0,29.97,0,0.0,0.0,0.0,0.0,0.0,0,0.0,0.0
9.649,4.81,137.5,194.31,-1.0,0.0,16.27,-0.02,29.97,0,0.0,0.0,0.0,0.0,0.0,0,0.0,0.0
9.849,4.81,137.5,194.31,-1.0,0.0,16.3,0.01,29.97,0,0.0,0.0,0.0,0.0,0.0,0,0.0,0.0
10.049,4.81,137.5,194.31,-1.0,0.0,16.27,-0.02,29.97,0,0.0,0.0,0.0,0.0,0.0,0,0.0,0.0
10.249,4.81,137.5,194.31,-1.0,0.0,16.26,-0.02,29.97,0,0.0,0.0,0.0,0.0,0.0,0,0.0,0.0
10.449,4.81,137.5,194.31,-1.0,0.0,16.28,0.01,29.97,0,0.0,0.0,0.0,0.0,0.0,0,0.0,0.0
10.649,4.81,137.5,194.31,-1.0,0.0,16.29,0.02,29.97,0,0.0,0.0,0.0,0.0,0.0,0,0.0,0.0
10.849,4.81,137.5,194.31,-1.0,0.0,16.33,0.05,29.97,0,0.0,0.0,0.0,0.0,0.0,0,0.0,0.0
11.049,4.81,137.5,194.31,-1.0,0.0,16.34,0.05,29.97,0,0.0,0.0,0.0,0.0,0.0,0,0.0,0.0
11.249,4.81,137.5,194.31,-1.0,0.0,16.32,0.02,29.97,0,0.0,0.0,0.0,0.0,0.0,0,0.0,0.0
11.449,4.81,137.5,194.31,-1.0,0.0,16.33,0.03,29.97,0,0.0,0.0,0.0,0.0,0.0,0,0.0,0.0
11.649,4.81,137.5,194.31,-1.0,0.0,16.37,0.07,29.97,0,0.0,0.0,0.0,0.0,0.0,0,0.0,0.0
11.85,4.81,137.5,194.31,-1.0,0.0,16.35,0.03,29.97,0,0.0,0.0,0.0,0.0,0.0,0,0.0,0.0
12.05,4.81,137.5,194.31,-1.0,0.0,16.37,0.04,29.97,0,0.0,0.0,0.0,0.0,0.0,0,0.0,0.0
12.25,4.81,137.5,194.31,-1.0,0.0,16.31,-0.03,29.97,0,0.0,0.0,0.0,0.0,0.0,0,0.0,0.0
12.45,4.81,137.5,194.31,-1.0,0.0,16.28,-0.05,29.97,0,0.0,0.0,0.0,0.0,0.0,0,0.0,0.0
12.65,4.81,137.5,194.31,-1.0,0.0,16.28,-0.04,29.97,0,0.0,0.0,0.0,0.0,0.0,0,0.0,0.0
12.85,4.81,137.5,194.31,-1.0,0.0,16.28,-0.03,29.97,0,0.0,0.0,0.0,0.0,0.0,0,0.0,0.0
13.05,4.81,137.5,194.31,-1.0,0.0,16.26,-0.04,29.97,0,0.0,0.0,0.0,0.0,0.0,0,0.0,0.0
13.25,4.81,137.5,194.31,-1.0,0.0,16.29,-0.0,29.97,0,0.0,0.0,0.0,0.0,0.0,0,0.0,0.0
13.451,4.81,137.5,194.31,-1.0,0.0,16.25,-0.05,29.98,0,0.0,0.0,0.0,0.0,0.0,0,0.0,0.0
13.651,4.81,137.5,194.31,-1.0,0.0,16.25,-0.04,29.98,0,0.0,0.0,0.0,0.0,0.0,0,0.0,0.0
13.851,4.81,137.5,194.31,-1.0,0.0,16.23,-0.05,29.98,0,0.0,0.0,0.0,0.0,0.0,0,0.0,0.0
14.051,4.81,137.5,194.31,-1.0,0.0,16.28,0.01,29.98,0,0.0,0.0,0.0,0.0,0.0,0,0.0,0.0
14.251,4.81,137.5,194.31,-1.0,0.0,16.31,0.04,29.98,0,0.0,0.0,0.0,0.0,0.0,0,0.0,0.0
14.451,4.81,137.5,194.31,-1.0,0.0,16.38,0.1,29.98,0,0.0,0.0,0.0,0.0,0.0,0,0.0,0.0
14.651,4.81,137.5,194.31,-1.0,0.0,16.35,0.05,29.98,0,0.0,0.0,0.0,0.0,0.0,0,0.0,0.0
14.851,4.81,137.5,194.31,-1.0,0.0,16.32,0.01,29.98,0,0.0,0.0,0.0,0.0,0.0,0,0.0,0.0
15.051,4.81,137.5,194.31,-1.0,0.0,16.29,-0.01,29.98,0,0.0,0.0,0.0,0.0,0.0,0,0.0,0.0
15.251,4.81,137.5,194.31,-1.0,0.0,16.3,-0.0,29.98,0,0.0,0.0,0.0,0.0,0.0,0,0.0,0.0
15.451,4.81,137.5,194.31,-1.0,0.0,16.33,0.02,29.98,0,0.0,0.0,0.0,0.0,0.0,0,0.0,0.0
15.651,4.81,137.5,194.31,-1.0,0.0,16.25,-0.06,29.98,0,0.0,0.0,0.0,0.0,0.0,0,0.0,0.0
15.851,4.81,137.5,194.31,-1.0,0.0,16.23,-0.07,29.98,0,0.0,0.0,0.0,0.0,0.0,0,0.0,0.0
16.051,4.81,137.5,194.31,-1.0,0.0,16.21,-0.08,29.98,0,0.0,0.0,0.0,0.0,0.0,0,0.0,0.0
16.251,4.81,137.5,194.31,-1.0,0.0,16.23,-0.04,29.98,0,0.0,0.0,0.0,0.0,0.0,0,0.0,0.0
16.451,4.81,137.5,194.31,-1.0,0.0,16.23,-0.03,29.98,0,0.0,0.0,0.0,0.0,0.0,0,0.0,0.0
16.651,4.81,137.5,194.31,-1.0,0.0,16.27,0.02,29.98,0,0.0,0.0,0.0,0.0,0.0,0,0.0,0.0
16.851,4.81,137.5,194.31,-1.0,0.0,16.26,-0.0,29.98,0,0.0,0.0,0.0,0.0,0.0,0,0.0,0.0
17.051,4.81,137.5,194.31,-1.0,0.0,16.25,-0.0,29.98,0,0.0,0.0,0.0,0.0,0.0,0,0.0,0.0
17.251,4.81,137.5,194.31,-1.0,0.0,16.29,0.03,29.98,0,0.0,0.0,0.0,0.0,0.0,0,0.0,0.0
17.451,4.81,137.5,194.31,-1.0,0.0,16.3,0.03,29.98,0,0.0,0.0,0.0,0.0,0.0,0,0.0,0.0
17.651,4.81,137.5,194.31,-1.0,0.0,16.27,-0.0,29.98,0,0.0,0.0,0.0,0.0,0.0,0,0.0,0.0
17.851,4.81,137.5,194.31,-1.0,0.0,16.24,-0.03,29.99,0,0.0,0.0,0.0,0.0,0.0,0,0.0,0.0
18.051,4.81,137.5,194.31,-1.0,0.0,16.27,0.01,29.99,0,0.0,0.0,0.0,0.0,0.0,0,0.0,0.0
18.251,4.81,137.5,194.31,-1.0,0.0,16.29,0.02,29.99,0,0.0,0.0,0.0,0.0,0.0,0,0.0,0.0
18.451,4.81,137.5,194.31,-1.0,0.0,16.28,0.01,29.99,0,0.0,0.0,0.0,0.0,0.0,0,0.0,0.0
18.651,4.81,137.5,194.31,-1.0,0.0,16.26,-0.02,29.99,0,0.0,0.0,0.0,0.0,0.0,0,0.0,0.0
18.851,4.81,137.5,194.31,-1.0,0.0,16.27,0.0,29.99,0,0.0,0.0,0.0,0.0,0.0,0,0.0,0.0
19.051,4.81,137.5,194.31,-1.0,0.0,16.25,-0.02,29.99,0,0.0,0.0,0.0,0.0,0.0,0,0.0,0.0
19.251,4.81,137.5,194.31,-1.0,0.0,16.27,-0.0,29.99,0,0.0,0.0,0.0,0.0,0.0,0,0.0,0.0
19.451,4.81,137.5,194.31,-1.0,0.0,16.27,-0.0,29.99,0,0.0,0.0,0.0,0.0,0.0,0,0.0,0.0
19.651,4.81,137.5,194.31,-1.0,0.0,16.27,0.0,29.99,0,0.0,0.0,0.0,0.0,0.0,0,0.0,0.0
19.851,4.81,137.5,194.31,-1.0,0.0,16.24,-0.03,29.99,0,0.0,0.0,0.0,0.0,0.0,0,0.0,0.0
20.051,4.81,137.5,194.31,-1.0,0.0,16.27,0.01,29.99,0,0.0,0.0,0.0,0.0,0.0,0,0.0,0.0
20.251,4.81,137.5,194.31,-1.0,0.0,16.29,0.02,29.99,0,0.0,0.0,0.0,0.0,0.0,0,0.0,0.0
20.451,4.81,137.5,194.31,-1.0,0.0,16.31,0.03,29.99,0,0.0,0.0,0.0,0.0,0.0,0,0.0,0.0
20.651,4.81,137.5,194.31,-1.0,0.0,16.26,-0.02,29.99,0,0.0,0.0,0.0,0.0,0.0,0,0.0,0.0
20.851,4.81,137.5,194.31,-1.0,0.0,16.26,-0.02,29.99,0,0.0,0.0,0.0,0.0,0.0,0,0.0,0.0
21.051,4.81,137.5,194.31,-1.0,0.0,16.27,-0.0,29.99,0,0.0,0.0,0.0,0.0,0.0,0,0.0,0.0
21.251,4.81,137.5,194.31,-1.0,0.0,16.27,-0.01,29.99,0,0.0,0.0,0.0,0.0,0.0,0,0.0,0.0
21.451,4.81,137.5,194.31,-1.0,0.0,16.31,0.03,29.99,0,0.0,0.0,0.0,0.0,0.0,0,0.0,0.0
21.651,4.81,137.5,194.31,-1.0,0.0,16.3,0.02,29.99,0,0.0,0.0,0.0,0.0,0.0,0,0.0,0.0
21.851,4.81,137.5,194.31,-1.0,0.0,16.31,0.02,29.99,0,0.0,0.0,0.0,0.0,0.0,0,0.0,0.0
22.051,4.81,137.5,194.31,-1.0,0.0,16.33,0.04,29.99,0,0.0,0.0,0.0,0.0,0.0,0,0.0,0.0
22.251,4.81,137.5,194.31,-1.0,0.0,16.33,0.03,29.99,0,0.0,0.0,0.0,0.0,0.0,0,0.0,0.0
22.451,4.81,137.5,194.31,-1.0,0.0,16.35,0.04,29.99,0,0.0,0.0,0.0,0.0,0.0,0,0.0,0.0
22.651,4.81,137.5,194.31,-1.0,0.0,16.35,0.04,29.99,0,0.0,0.0,0.0,0.0,0.0,0,0.0,0.0
22.851,4.81,137.5,194.31,-1.0,0.0,16.39,0.06,29.99,0,0.0,0.0,0.0,0.0,0.0,0,0.0,0.0
23.051,4.81,137.5,194.31,-1.0,0.0,16.39,0.05,29.99,0,0.0,0.0,0.0,0.0,0.0,0,0.0,0.0
23.251,4.81,137.5,194.31,-1.0,0.0,16.37,0.02,29.99,0,0.0,0.0,0.0,0.0,0.0,0,0.0,0.0
23.451,4.81,137.5,194.31,-1.0,0.0,16.39,0.04,30.0,0,0.0,0.0,0.0,0.0,0.0,0,0.0,0.0
23.651,4.81,137.5,194.31,-1.0,0.0,16.42,0.05,30.0,0,0.0,0.0,0.0,0.0,0.0,0,0.0,0.0
23.851,4.81,137.5,194.31,-1.0,0.0,16.38,0.01,30.0,0,0.0,0.0,0.0,0.0,0.0,0,0.0,0.0
24.051,4.81,137.5,194.31,-1.0,0.0,16.33,-0.04,30.0,0,0.0,0.0,0.0,0.0,0.0,0,0.0,0.0
24.251,4.81,137.5,194.31,-1.0,0.0,16.27,-0.09,30.0,0,0.0,0.0,0.0,0.0,0.0,0,0.0,0.0
24.451,4.81,137.5,194.31,-1.0,0.0,16.23,-0.11,30.0,0,0.0,0.0,0.0,0.0,0.0,0,0.0,0.0
24.651,4.81,137.5,194.31,-1.0,0.0,16.28,-0.04,30.0,0,0.0,0.0,0.0,0.0,0.0,0,0.0,0.0
24.851,4.81,137.5,194.31,-1.0,0.0,16.28,-0.04,30.0,0,0.0,0.0,0.0,0.0,0.0,0,0.0,0.0
25.051,4.81,137.5,194.31,-1.0,0.0,16.3,-0.01,30.0,0,0.0,0.0,0.0,0.0,0.0,0,0.0,0.0
25.251,4.81,137.5,194.31,-1.0,0.0,16.3,-0.01,30.0,0,0.0,0.0,0.0,0.0,0.0,0,0.0,0.0
25.451,4.81,137.5,194.31,-1.0,0.0,16.31,0.01,30.0,0,0.0,0.0,0.0,0.0,0.0,0,0.0,0.0
25.651,4.81,137.5,194.31,-1.0,0.0,16.35,0.04,30.0,0,0.0,0.0,0.0,0.0,0.0,0,0.0,0.0
25.851,4.81,137.5,194.31,-1.0,0.0,16.31,-0.0,30.0,0,0.0,0.0,0.0,0.0,0.0,0,0.0,0.0
26.051,4.81,137.5,194.31,-1.0,0.0,16.27,-0.04,30.0,0,0.0,0.0,0.0,0.0,0.0,0,0.0,0.0
26.251,4.81,137.5,194.31,-1.0,0.0,16.29,-0.02,30.0,0,0.0,0.0,0.0,0.0,0.0,0,0.0,0.0
26.451,4.81,137.5,194.31,-1.0,0.0,16.27,-0.04,30.0,0,0.0,0.0,0.0,0.0,0.0,0,0.0,0.0
26.651,4.81,137.5,194.31,-1.0,0.0,16.3,-0.0,30.0,0,0.0,0.0,0.0,0.0,0.0,0,0.0,0.0
26.851,4.81,137.5,194.31,-1.0,0.0,16.31,0.01,30.0,0,0.0,0.0,0.0,0.0,0.0,0,0.0,0.0
27.051,4.81,137.5,194.31,-1.0,0.0,16.3,-0.01,30.0,0,0.0,0.0,0.0,0.0,0.0,0,0.0,0.0
27.251,4.81,137.5,194.31,-1.0,0.0,16.23,-0.06,30.0,0,0.0,0.0,0.0,0.0,0.0,0,0.0,0.0
27.451,4.81,137.5,194.31,-1.0,0.0,16.22,-0.06,30.0,0,0.0,0.0,0.0,0.0,0.0,0,0.0,0.0
27.651,4.81,137.5,194.31,-1.0,0.0,16.24,-0.04,30.01,0,0.0,0.0,0.0,0.0,0.0,0,0.0,0.0
27.851,4.81,137.5,194.31,-1.0,0.0,16.22,-0.05,30.0,0,0.0,0.0,0.0,0.0,0.0,0,0.0,0.0
28.051,4.81,137.5,194.31,-1.0,0.0,16.23,-0.03,30.01,0,0.0,0.0,0.0,0.0,0.0,0,0.0,0.0
28.252,4.81,137.5,194.31,-1.0,0.0,16.25,-0.0,30.01,0,0.0,0.0,0.0,0.0,0.0,0,0.0,0.0
28.452,4.81,137.5,194.31,-1.0,0.0,16.29,0.04,30.01,0,0.0,0.0,0.0,0.0,0.0,0,0.0,0.0
28.652,4.81,137.5,194.31,-1.0,0.0,16.29,0.03,30.01,0,0.0,0.0,0.0,0.0,0.0,0,0.0,0.0
28.852,3.85,130.29,194.31,-1.0,0.0,16.33,0.06,30.01,0,0.0,0.0,0.0,0.0,0.0,0,0.0,0.0
29.052,4.71,136.73,194.31,-1.0,0.0,16.32,0.04,30.01,0,0.0,0.0,0.0,0.0,0.0,0,0.0,0.0
29.252,4.8,137.42,194.31,-1.0,0.0,16.34,0.05,30.01,0,0.0,0.0,0.0,0.0,0.0,0,0.0,0.0
29.452,4.81,137.49,194.31,-1.0,0.0,16.33,0.04,30.01,0,0.0,0.0,0.0,0.0,0.0,0,0.0,0.0
29.652,4.81,137.5,194.31,-1.0,0.0,16.32,0.02,30.01,0,0.0,0.0,0.0,0.0,0.0,0,0.0,0.0
29.852,4.81,137.5,194.31,-1.0,0.0,16.32,0.01,30.01,0,0.0,0.0,0.0,0.0,0.0,0,0.0,0.0
30.052,4.81,137.5,194.31,-1.0,0.0,16.41,0.1,30.01,0,0.0,0.0,0.0,0.0,0.0,0,0.0,0.0
30.252,4.81,137.5,194.31,-1.0,0.0,16.39,0.06,30.01,0,0.0,0.0,0.0,0.0,0.0,0,0.0,0.0
30.452,4.81,137.5,194.31,-1.0,0.0,16.41,0.07,30.01,0,0.0,0.0,0.0,0.0,0.0,0,0.0,0.0
30.652,4.81,137.5,194.31,-1.0,0.0,16.41,0.05,30.01,0,0.0,0.0,0.0,0.0,0.0,0,0.0,0.0
30.852,4.81,137.5,194.31,-1.0,0.0,16.43,0.06,30.01,0,0.0,0.0,0.0,0.0,0.0,0,0.0,0.0
31.052,4.81,137.5,194.31,-1.0,0.0,16.39,0.02,30.01,0,0.0,0.0,0.0,0.0,0.0,0,0.0,0.0
31.252,4.81,137.5,194.31,-1.0,0.0,16.43,0.05,30.01,0,0.0,0.0,0.0,0.0,0.0,0,0.0,0.0
31.452,4.81,137.5,194.31,-1.0,0.0,16.41,0.02,30.01,0,0.0,0.0,0.0,0.0,0.0,0,0.0,0.0
31.652,4.81,137.5,194.31,-1.0,0.0,16.42,0.03,30.01,0,0.0,0.0,0.0,0.0,0.0,0,0.0,0.0
31.852,4.81,137.5,194.31,-1.0,0.0,16.39,-0.0,30.01,0,0.0,0.0,0.0,0.0,0.0,0,0.0,0.0
32.052,4.81,137.5,194.31,-1.0,0.0,16.43,0.03,30.01,0,0.0,0.0,0.0,0.0,0.0,0,0.0,0.0
32.252,4.81,137.5,194.31,-1.0,0.0,16.42,0.01,30.01,0,0.0,0.0,0.0,0.0,0.0,0,0.0,0.0
32.452,4.81,137.5,194.31,-1.0,0.0,16.42,0.02,30.01,0,0.0,0.0,0.0,0.0,0.0,0,0.0,0.0
32.652,4.81,137.5,194.31,-1.0,0.0,16.39,-0.02,30.01,0,0.0,0.0,0.0,0.0,0.0,0,0.0,0.0
32.852,4.81,137.5,194.31,-1.0,0.0,16.47,0.06,30.01,0,0.0,0.0,0.0,0.0,0.0,0,0.0,0.0
33.052,4.81,137.5,194.31,-1.0,0.0,16.43,0.02,30.01,0,0.0,0.0,0.0,0.0,0.0,0,0.0,0.0
33.252,4.81,137.5,194.31,-1.0,0.0,16.38,-0.04,30.01,0,0.0,0.0,0.0,0.0,0.0,0,0.0,0.0
33.452,4.81,137.5,194.31,-1.0,0.0,16.34,-0.07,30.01,0,0.0,0.0,0.0,0.0,0.0,0,0.0,0.0
33.652,4.81,137.5,194.31,-1.0,0.0,16.36,-0.04,30.01,0,0.0,0.0,0.0,0.0,0.0,0,0.0,0.0
33.852,4.81,137.5,194.31,-1.0,0.0,16.4,0.01,30.01,0,0.0,0.0,0.0,0.0,0.0,0,0.0,0.0
34.052,4.81,137.5,194.31,-1.0,0.0,16.38,-0.01,30.01,0,0.0,0.0,0.0,0.0,0.0,0,0.0,0.0
34.252,4.81,137.5,194.31,-1.0,0.0,16.33,-0.06,30.01,0,0.0,0.0,0.0,0.0,0.0,0,0.0,0.0
34.452,4.81,137.5,194.31,-1.0,0.0,16.34,-0.04,30.01,0,0.0,0.0,0.0,0.0,0.0,0,0.0,0.0
34.652,4.81,137.5,194.31,-1.0,0.0,16.38,0.0,30.01,0,0.0,0.0,0.0,0.0,0.0,0,0.0,0.0
34.852,4.81,137.5,194.31,-1.0,0.0,16.39,0.01,30.01,0,0.0,0.0,0.0,0.0,0.0,0,0.0,0.0
35.052,4.81,137.5,194.31,-1.0,0.0,16.38,0.0,30.01,0,0.0,0.0,0.0,0.0,0.0,0,0.0,0.0
35.252,4.81,137.5,194.31,-1.0,0.0,16.4,0.02,30.01,0,0.0,0.0,0.0,0.0,0.0,0,0.0,0.0
35.452,4.81,137.5,194.31,-1.0,0.0,16.48,0.09,30.01,0,0.0,0.0,0.0,0.0,0.0,0,0.0,0.0
35.652,4.81,137.5,194.31,-1.0,0.0,16.45,0.05,30.01,0,0.0,0.0,0.0,0.0,0.0,0,0.0,0.0
35.852,4.81,137.5,194.31,-1.0,0.0,16.48,0.07,30.01,0,0.0,0.0,0.0,0.0,0.0,0,0.0,0.0
36.052,4.81,137.5,194.31,-1.0,0.0,16.43,0.01,30.01,0,0.0,0.0,0.0,0.0,0.0,0,0.0,0.0
36.252,4.81,137.5,194.31,-1.0,0.0,16.42,0.0,30.01,0,0.0,0.0,0.0,0.0,0.0,0,0.0,0.0
36.462,4.81,137.5,194.31,-1.0,0.0,16.44,0.01,30.01,0,0.0,0.0,0.0,0.0,0.0,0,0.0,0.0
36.662,4.81,137.5,194.31,-1.0,0.0,16.4,-0.03,30.01,0,0.0,0.0,0.0,0.0,0.0,0,0.0,0.0
36.864,4.81,137.5,194.31,-1.0,0.0,16.39,-0.03,30.01,0,0.0,0.0,0.0,0.0,0.0,0,0.0,0.0
37.064,4.81,137.5,194.31,-1.0,0.0,16.41,-0.0,30.01,0,0.0,0.0,0.0,0.0,0.0,0,0.0,0.0
37.264,4.81,137.5,194.31,-1.0,0.0,16.42,0.0,30.01,0,0.0,0.0,0.0,0.0,0.0,0,0.0,0.0
37.467,4.81,137.5,194.31,-1.0,0.0,16.41,-0.0,30.01,0,0.0,0.0,0.0,0.0,0.0,0,0.0,0.0
37.667,4.81,137.5,194.31,-1.0,0.0,16.43,0.01,30.01,0,0.0,0.0,0.0,0.0,0.0,0,0.0,0.0
37.867,4.81,137.5,194.31,-1.0,0.0,16.42,0.0,30.01,0,0.0,0.0,0.0,0.0,0.0,0,0.0,0.0
38.067,4.81,137.5,194.31,-1.0,0.0,16.4,-0.01,30.01,0,0.0,0.0,0.0,0.0,0.0,0,0.0,0.0
38.267,4.81,137.5,194.31,-1.0,0.0,16.42,0.01,30.01,0,0.0,0.0,0.0,0.0,0.0,0,0.0,0.0
38.467,4.81,137.5,194.31,-1.0,0.0,16.43,0.02,30.01,0,0.0,0.0,0.0,0.0,0.0,0,0.0,0.0
38.667,4.81,137.5,194.31,-1.0,0.0,16.45,0.03,30.01,0,0.0,0.0,0.0,0.0,0.0,0,0.0,0.0
38.867,4.81,137.5,194.31,-1.0,0.0,16.45,0.03,30.01,0,0.0,0.0,0.0,0.0,0.0,0,0.0,0.0
39.067,4.81,137.5,194.31,-1.0,0.0,16.42,-0.01,30.01,0,0.0,0.0,0.0,0.0,0.0,0,0.0,0.0
39.267,4.81,137.5,194.31,-1.0,0.0,16.41,-0.01,30.01,0,0.0,0.0,0.0,0.0,0.0,0,0.0,0.0
39.467,4.81,137.5,194.31,-1.0,0.0,16.41,-0.01,30.01,0,0.0,0.0,0.0,0.0,0.0,0,0.0,0.0
39.667,4.81,137.5,194.31,-1.0,0.0,16.36,-0.05,30.01,0,0.0,0.0,0.0,0.0,0.0,0,0.0,0.0
39.867,4.81,137.5,194.31,-1.0,0.0,16.31,-0.09,30.01,0,0.0,0.0,0.0,0.0,0.0,0,0.0,0.0
40.067,4.81,137.5,194.31,-1.0,0.0,16.34,-0.05,30.01,0,0.0,0.0,0.0,0.0,0.0,0,0.0,0.0
40.267,4.81,137.5,194.31,-1.0,0.0,16.29,-0.09,30.01,0,0.0,0.0,0.0,0.0,0.0,0,0.0,0.0
40.467,4.81,137.5,194.31,-1.0,0.0,16.27,-0.09,30.01,0,0.0,0.0,0.0,0.0,0.0,0,0.0,0.0
40.667,4.81,137.5,194.31,-1.0,0.0,16.31,-0.04,30.01,0,0.0,0.0,0.0,0.0,0.0,0,0.0,0.0
40.867,4.81,137.5,194.31,-1.0,0.0,16.25,-0.09,30.01,0,0.0,0.0,0.0,0.0,0.0,0,0.0,0.0
41.067,4.81,137.5,194.31,-1.0,0.0,16.26,-0.07,30.01,0,0.0,0.0,0.0,0.0,0.0,0,0.0,0.0
41.267,4.81,137.5,194.31,-1.0,0.0,16.25,-0.06,30.01,0,0.0,0.0,0.0,0.0,0.0,0,0.0,0.0
41.467,4.81,137.5,194.31,-1.0,0.0,16.27,-0.03,30.01,0,0.0,0.0,0.0,0.0,0.0,0,0.0,0.0
41.667,4.81,137.5,194.31,-1.0,0.0,16.29,-0.0,30.01,0,0.0,0.0,0.0,0.0,0.0,0,0.0,0.0
41.867,4.81,137.5,194.31,-1.0,0.0,16.29,-0.0,30.01,0,0.0,0.0,0.0,0.0,0.0,0,0.0,0.0
42.067,4.81,137.5,194.31,-1.0,0.0,16.25,-0.04,30.01,0,0.0,0.0,0.0,0.0,0.0,0,0.0,0.0
42.267,4.81,137.5,194.31,-1.0,0.0,16.28,-0.01,30.01,0,0.0,0.0,0.0,0.0,0.0,0,0.0,0.0
42.467,4.81,137.5,194.31,-1.0,0.0,16.29,0.01,30.01,0,0.0,0.0,0.0,0.0,0.0,0,0.0,0.0
42.667,4.81,137.5,194.31,-1.0,0.0,16.34,0.06,30.01,0,0.0,0.0,0.0,0.0,0.0,0,0.0,0.0
42.867,4.81,137.5,194.31,-1.0,0.0,16.35,0.05,30.01,0,0.0,0.0,0.0,0.0,0.0,0,0.0,0.0
43.067,4.81,137.5,194.31,-1.0,0.0,16.34,0.03,30.01,0,0.0,0.0,0.0,0.0,0.0,0,0.0,0.0
43.267,4.81,137.5,194.31,-1.0,0.0,16.33,0.02,30.01,0,0.0,0.0,0.0,0.0,0.0,0,0.0,0.0
43.467,4.81,137.5,194.31,-1.0,0.0,16.35,0.03,30.01,0,0.0,0.0,0.0,0.0,0.0,0,0.0,0.0
43.667,4.81,137.5,194.31,-1.0,0.0,16.35,0.03,30.01,0,0.0,0.0,0.0,0.0,0.0,0,0.0,0.0
43.867,4.81,137.5,194.31,-1.0,0.0,16.42,0.09,30.01,0,0.0,0.0,0.0,0.0,0.0,0,0.0,0.0
44.07,4.81,137.5,194.31,-1.0,0.0,16.44,0.09,30.01,0,0.0,0.0,0.0,0.0,0.0,0,0.0,0.0
44.27,4.81,137.5,194.31,-1.0,0.0,16.41,0.04,30.01,0,0.0,0.0,0.0,0.0,0.0,0,0.0,0.0
44.47,4.81,137.5,194.31,-1.0,0.0,16.39,0.02,30.01,0,0.0,0.0,0.0,0.0,0.0,0,0.0,0.0
44.671,4.81,137.5,194.31,-1.0,0.0,16.44,0.06,30.01,0,0.0,0.0,0.0,0.0,0.0,0,0.0,0.0
44.873,4.81,137.5,194.31,-1.0,0.0,16.41,0.02,30.01,0,0.0,0.0,0.0,0.0,0.0,0,0.0,0.0
45.106,4.81,137.5,194.31,-1.0,0.0,16.39,0.01,30.01,0,0.0,0.0,0.0,0.0,0.0,0,0.0,0.0
45.306,4.81,137.5,194.31,-1.0,0.0,16.42,0.04,30.01,0,0.0,0.0,0.0,0.0,0.0,0,0.0,0.0
45.506,4.81,137.5,194.31,-1.0,0.0,16.41,0.02,30.01,0,0.0,0.0,0.0,0.0,0.0,0,0.0,0.0
45.706,4.81,137.5,194.31,-1.0,0.0,16.42,0.03,30.01,0,0.0,0.0,0.0,0.0,0.0,0,0.0,0.0
45.906,4.81,137.5,194.31,-1.0,0.0,16.4,0.0,30.01,0,0.0,0.0,0.0,0.0,0.0,0,0.0,0.0
46.106,4.81,137.5,194.31,-1.0,0.0,16.42,0.02,30.01,0,0.0,0.0,0.0,0.0,0.0,0,0.0,0.0
46.306,4.81,137.5,194.31,-1.0,0.0,16.4,-0.0,30.01,0,0.0,0.0,0.0,0.0,0.0,0,0.0,0.0
46.506,4.81,137.5,194.31,-1.0,0.0,16.39,-0.01,30.01,0,0.0,0.0,0.0,0.0,0.0,0,0.0,0.0
46.706,4.81,137.5,194.31,-1.0,0.0,16.36,-0.04,30.01,0,0.0,0.0,0.0,0.0,0.0,0,0.0,0.0
46.906,4.81,137.5,194.31,-1.0,0.0,16.31,-0.08,30.01,0,0.0,0.0,0.0,0.0,0.0,0,0.0,0.0
47.106,4.81,137.5,194.31,-1.0,0.0,16.36,-0.02,30.01,0,0.0,0.0,0.0,0.0,0.0,0,0.0,0.0
47.306,4.81,137.5,194.31,-1.0,0.0,16.35,-0.02,30.01,0,0.0,0.0,0.0,0.0,0.0,0,0.0,0.0
47.506,4.81,137.5,194.31,-1.0,0.0,16.41,0.04,30.01,0,0.0,0.0,0.0,0.0,0.0,0,0.0,0.0
47.706,4.81,137.5,194.31,-1.0,0.0,16.43,0.05,30.01,0,0.0,0.0,0.0,0.0,0.0,0,0.0,0.0
47.906,4.81,137.5,194.31,-1.0,0.0,16.45,0.05,30.01,0,0.0,0.0,0.0,0.0,0.0,0,0.0,0.0
48.106,4.81,137.5,194.31,-1.0,0.0,16.46,0.06,30.01,0,0.0,0.0,0.0,0.0,0.0,0,0.0,0.0
48.306,4.81,137.5,194.31,-1.0,0.0,16.48,0.06,30.01,0,0.0,0.0,0.0,0.0,0.0,0,0.0,0.0
48.507,4.81,137.5,194.31,-1.0,0.0,16.5,0.07,30.01,0,0.0,0.0,0.0,0.0,0.0,0,0.0,0.0
48.707,4.81,137.5,194.31,-1.0,0.0,16.51,0.07,30.01,0,0.0,0.0,0.0,0.0,0.0,0,0.0,0.0
48.907,4.81,137.5,194.31,-1.0,0.0,16.51,0.05,30.01,0,0.0,0.0,0.0,0.0,0.0,0,0.0,0.0
49.107,4.81,137.5,194.31,-1.0,0.0,16.51,0.04,30.01,0,0.0,0.0,0.0,0.0,0.0,0,0.0,0.0
49.307,4.81,124.73,194.31,-1.0,0.0,16.47,0.0,30.01,0,0.0,0.0,0.0,0.0,0.0,0,0.0,0.0
49.507,4.81,136.13,194.31,-1.0,0.0,16.43,-0.03,30.01,0,0.0,0.0,0.0,0.0,0.0,0,0.0,0.0
49.707,4.81,137.35,194.31,-1.0,0.0,16.42,-0.04,30.01,0,0.0,0.0,0.0,0.0,0.0,0,0.0,0.0
49.907,4.81,137.48,194.31,-1.0,0.0,16.39,-0.06,30.01,0,0.0,0.0,0.0,0.0,0.0,0,0.0,0.0
50.107,4.81,137.5,194.31,-1.0,0.0,16.47,0.02,30.01,0,0.0,0.0,0.0,0.0,0.0,0,0.0,0.0
50.307,4.81,137.5,194.31,-1.0,0.0,16.46,0.02,30.02,0,0.0,0.0,0.0,0.0,0.0,0,0.0,0.0
50.507,4.81,137.5,194.31,-1.0,0.0,16.46,0.01,30.02,0,0.0,0.0,0.0,0.0,0.0,0,0.0,0.0
50.707,4.81,137.5,194.31,-1.0,0.0,16.41,-0.04,30.02,0,0.0,0.0,0.0,0.0,0.0,0,0.0,0.0
50.907,4.81,137.5,194.31,-1.0,0.0,16.46,0.02,30.02,0,0.0,0.0,0.0,0.0,0.0,0,0.0,0.0
51.107,4.81,137.5,194.31,-1.0,0.0,16.45,0.01,30.02,0,0.0,0.0,0.0,0.0,0.0,0,0.0,0.0
51.307,4.81,137.5,194.31,-1.0,0.0,16.44,-0.0,30.02,0,0.0,0.0,0.0,0.0,0.0,0,0.0,0.0
51.507,4.81,137.5,194.31,-1.0,0.0,16.42,-0.02,30.02,0,0.0,0.0,0.0,0.0,0.0,0,0.0,0.0
51.707,4.81,137.5,194.31,-1.0,0.0,16.45,0.01,30.02,0,0.0,0.0,0.0,0.0,0.0,0,0.0,0.0
51.907,4.81,137.5,194.31,-1.0,0.0,16.37,-0.07,30.02,0,0.0,0.0,0.0,0.0,0.0,0,0.0,0.0
52.107,4.81,137.5,194.31,-1.0,0.0,16.39,-0.04,30.02,0,0.0,0.0,0.0,0.0,0.0,0,0.0,0.0
52.307,4.81,137.5,194.31,-1.0,0.0,16.35,-0.07,30.02,0,0.0,0.0,0.0,0.0,0.0,0,0.0,0.0
52.507,4.81,137.5,194.31,-1.0,0.0,16.36,-0.04,30.02,0,0.0,0.0,0.0,0.0,0.0,0,0.0,0.0
52.707,4.81,137.5,194.31,-1.0,0.0,16.4,0.0,30.02,0,0.0,0.0,0.0,0.0,0.0,0,0.0,0.0
52.907,4.81,137.5,194.31,-1.0,0.0,16.39,-0.01,30.02,0,0.0,0.0,0.0,0.0,0.0,0,0.0,0.0
53.107,4.81,137.5,194.31,-1.0,0.0,16.41,0.01,30.02,0,0.0,0.0,0.0,0.0,0.0,0,0.0,0.0
53.308,4.81,137.5,194.31,-1.0,0.0,16.42,0.02,30.02,0,0.0,0.0,0.0,0.0,0.0,0,0.0,0.0
53.508,4.81,137.5,194.31,-1.0,0.0,16.39,-0.01,30.02,0,0.0,0.0,0.0,0.0,0.0,0,0.0,0.0
53.708,4.81,137.5,194.31,-1.0,0.0,16.38,-0.02,30.02,0,0.0,0.0,0.0,0.0,0.0,0,0.0,0.0
53.908,4.81,137.5,194.31,-1.0,0.0,16.37,-0.03,30.02,0,0.0,0.0,0.0,0.0,0.0,0,0.0,0.0
54.108,4.81,137.5,194.31,-1.0,0.0,16.38,-0.01,30.02,0,0.0,0.0,0.0,0.0,0.0,0,0.0,0.0
54.308,4.81,137.5,194.31,-1.0,0.0,16.36,-0.03,30.02,0,0.0,0.0,0.0,0.0,0.0,0,0.0,0.0
54.508,4.81,137.5,194.31,-1.0,0.0,16.4,0.01,30.02,0,0.0,0.0,0.0,0.0,0.0,0,0.0,0.0
54.708,4.81,137.5,194.31,-1.0,0.0,16.38,-0.0,30.02,0,0.0,0.0,0.0,0.0,0.0,0,0.0,0.0
54.908,4.81,137.5,194.31,-1.0,0.0,16.36,-0.02,30.02,0,0.0,0.0,0.0,0.0,0.0,0,0.0,0.0
55.108,4.81,137.5,194.31,-1.0,0.0,16.35,-0.02,30.02,0,0.0,0.0,0.0,0.0,0.0,0,0.0,0.0
55.308,4.81,137.5,194.31,-1.0,0.0,16.33,-0.04,30.02,0,0.0,0.0,0.0,0.0,0.0,0,0.0,0.0
55.508,4.81,137.5,194.31,-1.0,0.0,16.32,-0.05,30.02,0,0.0,0.0,0.0,0.0,0.0,0,0.0,0.0
55.708,4.81,137.5,194.31,-1.0,0.0,16.31,-0.05,30.02,0,0.0,0.0,0.0,0.0,0.0,0,0.0,0.0
55.908,4.81,137.5,194.31,-1.0,0.0,16.32,-0.03,30.02,0,0.0,0.0,0.0,0.0,0.0,0,0.0,0.0
56.108,4.81,137.5,194.31,-1.0,0.0,16.33,-0.02,30.02,0,0.0,0.0,0.0,0.0,0.0,0,0.0,0.0
56.308,4.81,137.5,194.31,-1.0,0.0,16.34,-0.0,30.02,0,0.0,0.0,0.0,0.0,0.0,0,0.0,0.0
56.508,4.81,137.5,194.31,-1.0,0.0,16.4,0.05,30.02,0,0.0,0.0,0.0,0.0,0.0,0,0.0,0.0
56.708,4.81,137.5,194.31,-1.0,0.0,16.42,0.06,30.02,0,0.0,0.0,0.0,0.0,0.0,0,0.0,0.0
56.908,4.81,137.5,194.31,-1.0,0.0,16.37,0.01,30.02,0,0.0,0.0,0.0,0.0,0.0,0,0.0,0.0
57.108,4.81,137.5,194.31,-1.0,0.0,16.41,0.04,30.02,0,0.0,0.0,0.0,0.0,0.0,0,0.0,0.0
57.308,4.81,137.5,194.31,-1.0,0.0,16.42,0.05,30.02,0,0.0,0.0,0.0,0.0,0.0,0,0.0,0.0
57.508,4.81,137.5,194.31,-1.0,0.0,16.35,-0.03,30.02,0,0.0,0.0,0.0,0.0,0.0,0,0.0,0.0
57.709,4.81,137.5,194.31,-1.0,0.0,16.33,-0.04,30.02,0,0.0,0.0,0.0,0.0,0.0,0,0.0,0.0
57.909,4.81,137.5,194.31,-1.0,0.0,16.36,-0.01,30.02,0,0.0,0.0,0.0,0.0,0.0,0,0.0,0.0
58.109,4.81,137.5,194.31,-1.0,0.0,16.36,-0.0,30.02,0,0.0,0.0,0.0,0.0,0.0,0,0.0,0.0
58.309,4.81,137.5,194.31,-1.0,0.0,16.33,-0.03,30.02,0,0.0,0.0,0.0,0.0,0.0,0,0.0,0.0
58.509,4.81,137.5,194.31,-1.0,0.0,16.33,-0.02,30.02,0,0.0,0.0,0.0,0.0,0.0,0,0.0,0.0
58.709,4.81,137.5,194.31,-1.0,0.0,16.38,0.02,30.02,0,0.0,0.0,0.0,0.0,0.0,0,0.0,0.0
58.909,4.81,137.5,194.31,-1.0,0.0,16.36,0.0,30.02,0,0.0,0.0,0.0,0.0,0.0,0,0.0,0.0
59.109,4.81,137.5,194.31,-1.0,0.0,16.32,-0.03,30.02,0,0.0,0.0,0.0,0.0,0.0,0,0.0,0.0
59.309,4.81,137.5,194.31,-1.0,0.0,16.33,-0.02,30.02,0,0.0,0.0,0.0,0.0,0.0,0,0.0,0.0
59.509,4.81,137.5,194.31,-1.0,0.0,16.34,-0.01,30.02,0,0.0,0.0,0.0,0.0,0.0,0,0.0,0.0
59.709,4.81,137.5,194.31,-1.0,0.0,16.34,-0.01,30.02,0,0.0,0.0,0.0,0.0,0.0,0,0.0,0.0
59.909,4.81,137.5,194.31,-1.0,0.0,16.34,-0.0,30.02,0,0.0,0.0,0.0,0.0,0.0,0,0.0,0.0
60.109,4.81,137.5,194.31,-1.0,0.0,16.35,-0.0,30.02,0,0.0,0.0,0.0,0.0,0.0,0,0.0,0.0
60.309,4.81,137.5,194.31,-1.0,0.0,16.35,-0.0,30.02,0,0.0,0.0,0.0,0.0,0.0,0,0.0,0.0
60.509,4.81,137.5,194.31,-1.0,0.0,16.29,-0.06,30.02,0,0.0,0.0,0.0,0.0,0.0,0,0.0,0.0
60.709,4.81,137.5,194.31,-1.0,0.0,16.31,-0.03,30.02,0,0.0,0.0,0.0,0.0,0.0,0,0.0,0.0
60.909,4.81,137.5,194.31,-1.0,0.0,16.36,0.02,30.02,0,0.0,0.0,0.0,0.0,0.0,0,0.0,0.0
61.109,4.81,137.5,194.31,-1.0,0.0,16.31,-0.03,30.02,0,0.0,0.0,0.0,0.0,0.0,0,0.0,0.0
61.309,4.81,137.5,194.31,-1.0,0.0,16.32,-0.01,30.02,0,0.0,0.0,0.0,0.0,0.0,0,0.0,0.0
61.509,4.81,137.5,194.31,-1.0,0.0,16.34,0.01,30.02,0,0.0,0.0,0.0,0.0,0.0,0,0.0,0.0
61.709,4.81,137.5,194.31,-1.0,0.0,16.39,0.06,30.02,0,0.0,0.0,0.0,0.0,0.0,0,0.0,0.0
61.909,4.81,137.5,194.31,-1.0,0.0,16.41,0.07,30.02,0,0.0,0.0,0.0,0.0,0.0,0,0.0,0.0
62.109,4.81,137.5,194.31,-1.0,0.0,16.45,0.09,30.02,0,0.0,0.0,0.0,0.0,0.0,0,0.0,0.0
62.309,4.81,137.5,194.31,-1.0,0.0,16.4,0.02,30.02,0,0.0,0.0,0.0,0.0,0.0,0,0.0,0.0
62.509,4.81,137.5,194.31,-1.0,0.0,16.42,0.03,30.02,0,0.0,0.0,0.0,0.0,0.0,0,0.0,0.0
62.709,4.81,137.5,194.31,-1.0,0.0,16.4,0.02,30.02,0,0.0,0.0,0.0,0.0,0.0,0,0.0,0.0
62.909,4.81,137.5,194.31,-1.0,0.0,16.35,-0.03,30.02,0,0.0,0.0,0.0,0.0,0.0,0,0.0,0.0
63.109,4.81,137.5,194.31,-1.0,0.0,16.36,-0.02,30.02,0,0.0,0.0,0.0,0.0,0.0,0,0.0,0.0
63.309,4.81,137.5,194.31,-1.0,0.0,16.37,-0.01,30.02,0,0.0,0.0,0.0,0.0,0.0,0,0.0,0.0
63.509,4.81,137.5,194.31,-1.0,0.0,16.38,0.01,30.03,0,0.0,0.0,0.0,0.0,0.0,0,0.0,0.0
63.709,4.81,137.5,194.31,-1.0,0.0,16.36,-0.02,30.03,0,0.0,0.0,0.0,0.0,0.0,0,0.0,0.0
63.909,4.81,137.5,194.31,-1.0,0.0,16.33,-0.05,30.03,0,0.0,0.0,0.0,0.0,0.0,0,0.0,0.0
64.109,4.81,137.5,194.31,-1.0,0.0,16.31,-0.05,30.03,0,0.0,0.0,0.0,0.0,0.0,0,0.0,0.0
64.309,4.81,137.5,194.31,-1.0,0.0,16.35,-0.01,30.02,0,0.0,0.0,0.0,0.0,0.0,0,0.0,0.0
64.509,4.81,137.5,194.31,-1.0,0.0,16.35,-0.01,30.03,0,0.0,0.0,0.0,0.0,0.0,0,0.0,0.0
64.709,4.81,137.5,194.31,-1.0,0.0,16.36,0.0,30.02,0,0.0,0.0,0.0,0.0,0.0,0,0.0,0.0
64.909,4.81,137.5,194.31,-1.0,0.0,16.36,0.0,30.02,0,0.0,0.0,0.0,0.0,0.0,0,0.0,0.0
65.109,4.81,137.5,194.31,-1.0,0.0,16.4,0.03,30.02,0,0.0,0.0,0.0,0.0,0.0,0,0.0,0.0
65.309,4.81,137.5,194.31,-1.0,0.0,16.47,0.09,30.02,0,0.0,0.0,0.0,0.0,0.0,0,0.0,0.0
65.509,4.81,137.5,194.31,-1.0,0.0,16.46,0.07,30.02,0,0.0,0.0,0.0,0.0,0.0,0,0.0,0.0
65.709,4.81,137.5,194.31,-1.0,0.0,16.48,0.07,30.02,0,0.0,0.0,0.0,0.0,0.0,0,0.0,0.0
65.909,4.81,137.5,194.31,-1.0,0.0,16.5,0.08,30.02,0,0.0,0.0,0.0,0.0,0.0,0,0.0,0.0
66.109,4.81,137.5,194.31,-1.0,0.0,16.56,0.12,30.02,0,0.0,0.0,0.0,0.0,0.0,0,0.0,0.0
66.309,4.81,137.5,194.31,-1.0,0.0,16.52,0.06,30.02,0,0.0,0.0,0.0,0.0,0.0,0,0.0,0.0
66.509,4.81,137.5,194.31,-1.0,0.0,16.51,0.03,30.02,0,0.0,0.0,0.0,0.0,0.0,0,0.0,0.0
66.709,4.81,137.5,194.31,-1.0,0.0,16.55,0.07,30.03,0,0.0,0.0,0.0,0.0,0.0,0,0.0,0.0
66.909,4.81,137.5,194.31,-1.0,0.0,16.54,0.04,30.03,0,0.0,0.0,0.0,0.0,0.0,0,0.0,0.0
67.109,4.81,137.5,194.31,-1.0,0.0,16.53,0.03,30.03,0,0.0,0.0,0.0,0.0,0.0,0,0.0,0.0
67.309,4.81,137.5,194.31,-1.0,0.0,16.54,0.03,30.03,0,0.0,0.0,0.0,0.0,0.0,0,0.0,0.0
67.509,4.81,137.5,194.31,-1.0,0.0,16.53,0.01,30.03,0,0.0,0.0,0.0,0.0,0.0,0,0.0,0.0
67.709,4.81,137.5,194.31,-1.0,0.0,16.49,-0.03,30.03,0,0.0,0.0,0.0,0.0,0.0,0,0.0,0.0
67.909,4.81,137.5,194.31,-1.0,0.0,16.44,-0.07,30.03,0,0.0,0.0,0.0,0.0,0.0,0,0.0,0.0
68.109,4.81,137.5,194.31,-1.0,0.0,16.42,-0.08,30.03,0,0.0,0.0,0.0,0.0,0.0,0,0.0,0.0
68.309,4.81,137.5,194.31,-1.0,0.0,16.42,-0.06,30.03,0,0.0,0.0,0.0,0.0,0.0,0,0.0,0.0
68.509,4.81,137.5,194.31,-1.0,0.0,16.41,-0.06,30.03,0,0.0,0.0,0.0,0.0,0.0,0,0.0,0.0
68.709,4.81,137.5,194.31,-1.0,0.0,16.42,-0.04,30.03,0,0.0,0.0,0.0,0.0,0.0,0,0.0,0.0
68.909,4.81,137.5,194.31,-1.0,0.0,16.46,0.01,30.03,0,0.0,0.0,0.0,0.0,0.0,0,0.0,0.0
69.109,4.81,137.5,194.31,-1.0,0.0,16.44,-0.02,30.03,0,0.0,0.0,0.0,0.0,0.0,0,0.0,0.0
69.309,4.81,137.5,194.31,-1.0,0.0,16.4,-0.05,30.03,0,0.0,0.0,0.0,0.0,0.0,0,0.0,0.0
69.509,4.81,137.5,194.31,-1.0,0.0,16.45,0.0,30.03,0,0.0,0.0,0.0,0.0,0.0,0,0.0,0.0
69.709,4.81,137.5,194.31,-1.0,0.0,16.45,0.0,30.03,0,0.0,0.0,0.0,0.0,0.0,0,0.0,0.0
69.909,4.81,137.5,194.31,-1.0,0.0,16.43,-0.02,30.03,0,0.0,0.0,0.0,0.0,0.0,0,0.0,0.0
70.109,4.81,137.5,194.31,-1.0,0.0,16.43,-0.02,30.03,0,0.0,0.0,0.0,0.0,0.0,0,0.0,0.0
70.309,4.81,137.5,194.31,-1.0,0.0,16.43,-0.01,30.03,0,0.0,0.0,0.0,0.0,0.0,0,0.0,0.0
70.509,4.81,137.5,194.31,-1.0,0.0,16.49,0.04,30.03,0,0.0,0.0,0.0,0.0,0.0,0,0.0,0.0
70.709,4.81,137.5,194.31,-1.0,0.0,16.53,0.08,30.03,0,0.0,0.0,0.0,0.0,0.0,0,0.0,0.0
70.909,4.81,137.5,194.31,-1.0,0.0,16.49,0.03,30.03,0,0.0,0.0,0.0,0.0,0.0,0,0.0,0.0
71.109,4.81,137.5,194.31,-1.0,0.0,16.48,0.01,30.03,0,0.0,0.0,0.0,0.0,0.0,0,0.0,0.0
71.309,4.81,137.5,194.31,-1.0,0.0,16.52,0.05,30.03,0,0.0,0.0,0.0,0.0,0.0,0,0.0,0.0
71.509,4.81,137.5,194.31,-1.0,0.0,16.49,0.01,30.03,0,0.0,0.0,0.0,0.0,0.0,0,0.0,0.0
71.709,4.81,137.5,194.31,-1.0,0.0,16.5,0.02,30.03,0,0.0,0.0,0.0,0.0,0.0,0,0.0,0.0
71.909,4.81,137.5,194.31,-1.0,0.0,16.5,0.02,30.03,0,0.0,0.0,0.0,0.0,0.0,0,0.0,0.0
72.109,4.81,137.5,194.31,-1.0,0.0,16.54,0.05,30.03,0,0.0,0.0,0.0,0.0,0.0,0,0.0,0.0
72.309,4.81,137.5,194.31,-1.0,0.0,16.51,0.01,30.03,0,0.0,0.0,0.0,0.0,0.0,0,0.0,0.0
72.509,4.81,137.5,194.31,-1.0,0.0,16.55,0.04,30.03,0,0.0,0.0,0.0,0.0,0.0,0,0.0,0.0
72.709,4.81,137.5,194.31,-1.0,0.0,16.59,0.08,30.03,0,0.0,0.0,0.0,0.0,0.0,0,0.0,0.0
72.909,4.81,137.5,194.31,-1.0,0.0,16.6,0.07,30.03,0,0.0,0.0,0.0,0.0,0.0,0,0.0,0.0
73.109,4.81,137.5,194.31,-1.0,0.0,16.53,-0.02,30.03,0,0.0,0.0,0.0,0.0,0.0,0,0.0,0.0
73.309,4.81,137.5,194.31,-1.0,0.0,16.54,0.0,30.03,0,0.0,0.0,0.0,0.0,0.0,0,0.0,0.0
73.509,4.81,137.5,194.31,-1.0,0.0,16.56,0.01,30.03,0,0.0,0.0,0.0,0.0,0.0,0,0.0,0.0
73.709,4.81,137.5,194.31,-1.0,0.0,16.52,-0.03,30.03,0,0.0,0.0,0.0,0.0,0.0,0,0.0,0.0
73.909,4.81,137.5,194.31,-1.0,0.0,16.57,0.02,30.03,0,0.0,0.0,0.0,0.0,0.0,0,0.0,0.0
74.109,4.81,137.5,194.31,-1.0,0.0,16.58,0.02,30.03,0,0.0,0.0,0.0,0.0,0.0,0,0.0,0.0
74.309,4.81,137.5,194.31,-1.0,0.0,16.56,0.0,30.03,0,0.0,0.0,0.0,0.0,0.0,0,0.0,0.0
74.509,4.81,137.5,194.31,-1.0,0.0,16.57,0.01,30.03,0,0.0,0.0,0.0,0.0,0.0,0,0.0,0.0
74.709,4.81,137.5,194.31,-1.0,0.0,16.62,0.06,30.03,0,0.0,0.0,0.0,0.0,0.0,0,0.0,0.0
74.909,4.81,137.5,194.31,-1.0,0.0,16.56,-0.01,30.03,0,0.0,0.0,0.0,0.0,0.0,0,0.0,0.0
75.109,4.81,137.5,194.31,-1.0,0.0,16.55,-0.02,30.03,0,0.0,0.0,0.0,0.0,0.0,0,0.0,0.0
75.309,4.81,137.5,194.31,-1.0,0.0,16.53,-0.03,30.03,0,0.0,0.0,0.0,0.0,0.0,0,0.0,0.0
75.509,4.81,137.5,194.31,-1.0,0.0,16.46,-0.09,30.03,0,0.0,0.0,0.0,0.0,0.0,0,0.0,0.0
75.709,4.81,137.5,194.31,-1.0,0.0,16.53,-0.01,30.03,0,0.0,0.0,0.0,0.0,0.0,0,0.0,0.0
75.909,4.81,137.5,194.31,-1.0,0.0,16.56,0.02,30.03,0,0.0,0.0,0.0,0.0,0.0,0,0.0,0.0
76.109,4.81,137.5,194.31,-1.0,0.0,16.55,0.0,30.03,0,0.0,0.0,0.0,0.0,0.0,0,0.0,0.0
76.309,4.81,137.5,194.31,-1.0,0.0,16.53,-0.02,30.03,0,0.0,0.0,0.0,0.0,0.0,0,0.0,0.0
76.509,4.81,137.5,194.31,-1.0,0.0,16.47,-0.07,30.03,0,0.0,0.0,0.0,0.0,0.0,0,0.0,0.0
76.709,4.81,137.5,194.31,-1.0,0.0,16.49,-0.04,30.03,0,0.0,0.0,0.0,0.0,0.0,0,0.0,0.0
76.909,4.81,137.5,194.31,-1.0,0.0,16.48,-0.03,30.03,0,0.0,0.0,0.0,0.0,0.0,0,0.0,0.0
77.109,4.81,137.5,194.31,-1.0,0.0,16.48,-0.03,30.03,0,0.0,0.0,0.0,0.0,0.0,0,0.0,0.0
77.309,4.81,137.5,194.31,-1.0,0.0,16.49,-0.02,30.03,0,0.0,0.0,0.0,0.0,0.0,0,0.0,0.0
77.509,4.81,137.5,194.31,-1.0,0.0,16.49,-0.01,30.03,0,0.0,0.0,0.0,0.0,0.0,0,0.0,0.0
77.709,4.81,137.5,194.31,-1.0,0.0,16.43,-0.06,30.03,0,0.0,0.0,0.0,0.0,0.0,0,0.0,0.0
77.909,4.81,137.5,194.31,-1.0,0.0,16.4,-0.08,30.03,0,0.0,0.0,0.0,0.0,0.0,0,0.0,0.0
78.109,4.81,137.5,194.31,-1.0,0.0,16.43,-0.04,30.03,0,0.0,0.0,0.0,0.0,0.0,0,0.0,0.0
78.309,4.81,137.5,194.31,-1.0,0.0,16.43,-0.03,30.03,0,0.0,0.0,0.0,0.0,0.0,0,0.0,0.0
78.509,4.81,137.5,194.31,-1.0,0.0,16.42,-0.04,30.03,0,0.0,0.0,0.0,0.0,0.0,0,0.0,0.0
78.709,4.81,137.5,194.31,-1.0,0.0,16.44,-0.01,30.03,0,0.0,0.0,0.0,0.0,0.0,0,0.0,0.0
78.909,4.81,137.5,194.31,-1.0,0.0,16.46,0.01,30.03,0,0.0,0.0,0.0,0.0,0.0,0,0.0,0.0
79.109,4.81,137.5,194.31,-1.0,0.0,16.48,0.03,30.03,0,0.0,0.0,0.0,0.0,0.0,0,0.0,0.0
79.309,4.81,137.5,194.31,-1.0,0.0,16.5,0.04,30.03,0,0.0,0.0,0.0,0.0,0.0,0,0.0,0.0
79.509,4.81,137.5,194.31,-1.0,0.0,16.53,0.06,30.03,0,0.0,0.0,0.0,0.0,0.0,0,0.0,0.0
79.709,4.81,137.5,194.31,-1.0,0.0,16.54,0.05,30.03,0,0.0,0.0,0.0,0.0,0.0,0,0.0,0.0
79.909,4.81,137.5,194.31,-1.0,0.0,16.46,-0.03,30.03,0,0.0,0.0,0.0,0.0,0.0,0,0.0,0.0
80.109,4.81,137.5,194.31,-1.0,0.0,16.42,-0.06,30.03,0,0.0,0.0,0.0,0.0,0.0,0,0.0,0.0
80.309,4.81,137.5,194.31,-1.0,0.0,16.45,-0.01,30.03,0,0.0,0.0,0.0,0.0,0.0,0,0.0,0.0
80.509,4.81,137.5,194.31,-1.0,0.0,16.46,-0.01,30.03,0,0.0,0.0,0.0,0.0,0.0,0,0.0,0.0
80.709,4.81,137.5,194.31,-1.0,0.0,16.46,-0.01,30.03,0,0.0,0.0,0.0,0.0,0.0,0,0.0,0.0
80.909,4.81,137.5,194.31,-1.0,0.0,16.48,0.01,30.03,0,0.0,0.0,0.0,0.0,0.0,0,0.0,0.0
81.109,4.81,137.5,194.31,-1.0,0.0,16.5,0.03,30.03,0,0.0,0.0,0.0,0.0,0.0,0,0.0,0.0
81.309,4.81,137.5,194.31,-1.0,0.0,16.47,-0.01,30.03,0,0.0,0.0,0.0,0.0,0.0,0,0.0,0.0
81.509,4.81,137.5,194.31,-1.0,0.0,16.43,-0.04,30.03,0,0.0,0.0,0.0,0.0,0.0,0,0.0,0.0
81.709,4.81,137.5,194.31,-1.0,0.0,16.43,-0.03,30.03,0,0.0,0.0,0.0,0.0,0.0,0,0.0,0.0
81.909,4.81,137.5,194.31,-1.0,0.0,16.46,-0.0,30.03,0,0.0,0.0,0.0,0.0,0.0,0,0.0,0.0
82.109,4.81,137.5,194.31,-1.0,0.0,16.46,0.01,30.03,0,0.0,0.0,0.0,0.0,0.0,0,0.0,0.0
82.309,4.81,137.5,194.31,-1.0,0.0,16.52,0.06,30.03,0,0.0,0.0,0.0,0.0,0.0,0,0.0,0.0
82.509,4.81,137.5,194.31,-1.0,0.0,16.52,0.05,30.03,0,0.0,0.0,0.0,0.0,0.0,0,0.0,0.0
82.709,4.81,137.5,194.31,-1.0,0.0,16.54,0.05,30.03,0,0.0,0.0,0.0,0.0,0.0,0,0.0,0.0
82.909,4.81,137.5,194.31,-1.0,0.0,16.5,0.0,30.03,0,0.0,0.0,0.0,0.0,0.0,0,0.0,0.0
83.11,4.81,137.5,194.31,-1.0,0.0,16.49,-0.0,30.03,0,0.0,0.0,0.0,0.0,0.0,0,0.0,0.0
83.31,4.81,137.5,194.31,-1.0,0.0,16.49,-0.0,30.03,0,0.0,0.0,0.0,0.0,0.0,0,0.0,0.0
83.51,4.81,137.5,194.31,-1.0,0.0,16.46,-0.04,30.03,0,0.0,0.0,0.0,0.0,0.0,0,0.0,0.0
83.71,4.81,137.5,194.31,-1.0,0.0,16.45,-0.04,30.03,0,0.0,0.0,0.0,0.0,0.0,0,0.0,0.0
83.91,4.81,137.5,194.31,-1.0,0.0,16.45,-0.03,30.03,0,0.0,0.0,0.0,0.0,0.0,0,0.0,0.0
84.11,4.81,137.5,194.31,-1.0,0.0,16.45,-0.03,30.03,0,0.0,0.0,0.0,0.0,0.0,0,0.0,0.0
84.31,4.81,137.5,194.31,-1.0,0.0,16.46,-0.01,30.03,0,0.0,0.0,0.0,0.0,0.0,0,0.0,0.0
84.51,4.81,137.5,194.31,-1.0,0.0,16.46,-0.01,30.03,0,0.0,0.0,0.0,0.0,0.0,0,0.0,0.0
84.71,4.81,137.5,194.31,-1.0,0.0,16.48,0.01,30.04,0,0.0,0.0,0.0,0.0,0.0,0,0.0,0.0
84.91,4.81,137.5,194.31,-1.0,0.0,16.47,-0.0,30.04,0,0.0,0.0,0.0,0.0,0.0,0,0.0,0.0
85.11,4.81,137.5,194.31,-1.0,0.0,16.48,0.01,30.04,0,0.0,0.0,0.0,0.0,0.0,0,0.0,0.0
85.31,4.81,137.5,194.31,-1.0,0.0,16.52,0.05,30.04,0,0.0,0.0,0.0,0.0,0.0,0,0.0,0.0
85.51,4.81,137.5,194.31,-1.0,0.0,16.56,0.08,30.04,0,0.0,0.0,0.0,0.0,0.0,0,0.0,0.0
85.71,4.81,137.5,194.31,-1.0,0.0,16.56,0.06,30.04,0,0.0,0.0,0.0,0.0,0.0,0,0.0,0.0
85.91,4.81,137.5,194.31,-1.0,0.0,16.54,0.03,30.03,0,0.0,0.0,0.0,0.0,0.0,0,0.0,0.0
86.11,4.81,137.5,194.31,-1.0,0.0,16.52,0.01,30.03,0,0.0,0.0,0.0,0.0,0.0,0,0.0,0.0
86.31,4.81,137.5,194.31,-1.0,0.0,16.57,0.05,30.03,0,0.0,0.0,0.0,0.0,0.0,0,0.0,0.0
86.51,4.81,137.5,194.31,-1.0,0.0,16.51,-0.02,30.03,0,0.0,0.0,0.0,0.0,0.0,0,0.0,0.0
86.71,4.81,137.5,194.31,-1.0,0.0,16.46,-0.07,30.03,0,0.0,0.0,0.0,0.0,0.0,0,0.0,0.0
86.91,4.81,137.5,194.31,-1.0,0.0,16.44,-0.07,30.03,0,0.0,0.0,0.0,0.0,0.0,0,0.0,0.0
87.11,4.81,137.5,194.31,-1.0,0.0,16.43,-0.07,30.04,0,0.0,0.0,0.0,0.0,0.0,0,0.0,0.0
87.31,4.81,137.5,194.31,-1.0,0.0,16.45,-0.04,30.03,0,0.0,0.0,0.0,0.0,0.0,0,0.0,0.0
87.51,4.81,137.5,194.31,-1.0,0.0,16.43,-0.05,30.03,0,0.0,0.0,0.0,0.0,0.0,0,0.0,0.0
87.71,4.81,137.5,194.31,-1.0,0.0,16.43,-0.04,30.03,0,0.0,0.0,0.0,0.0,0.0,0,0.0,0.0
87.91,4.81,137.5,194.31,-1.0,0.0,16.49,0.02,30.04,0,0.0,0.0,0.0,0.0,0.0,0,0.0,0.0
88.11,4.81,137.5,194.31,-1.0,0.0,16.54,0.07,30.04,0,0.0,0.0,0.0,0.0,0.0,0,0.0,0.0
88.31,4.81,137.5,194.31,-1.0,0.0,16.54,0.06,30.04,0,0.0,0.0,0.0,0.0,0.0,0,0.0,0.0
88.51,4.81,137.5,194.31,-1.0,0.0,16.47,-0.02,30.04,0,0.0,0.0,0.0,0.0,0.0,0,0.0,0.0
88.71,4.81,137.5,194.31,-1.0,0.0,16.51,0.02,30.04,0,0.0,0.0,0.0,0.0,0.0,0,0.0,0.0
88.91,4.81,137.5,194.31,-1.0,0.0,16.49,-0.01,30.03,0,0.0,0.0,0.0,0.0,0.0,0,0.0,0.0
89.11,4.81,137.5,194.31,-1.0,0.0,16.47,-0.02,30.04,0,0.0,0.0,0.0,0.0,0.0,0,0.0,0.0
89.31,4.81,137.5,194.31,-1.0,0.0,16.49,-0.0,30.03,0,0.0,0.0,0.0,0.0,0.0,0,0.0,0.0
89.51,4.81,137.5,194.31,-1.0,0.0,16.52,0.02,30.03,0,0.0,0.0,0.0,0.0,0.0,0,0.0,0.0
89.71,4.81,137.5,194.31,-1.0,0.0,16.56,0.05,30.03,0,0.0,0.0,0.0,0.0,0.0,0,0.0,0.0
89.91,4.81,137.5,194.31,-1.0,0.0,16.61,0.09,30.04,0,0.0,0.0,0.0,0.0,0.0,0,0.0,0.0
90.11,4.81,137.5,194.31,-1.0,0.0,16.61,0.07,30.04,0,0.0,0.0,0.0,0.0,0.0,0,0.0,0.0
90.31,4.81,137.5,194.31,-1.0,0.0,16.63,0.08,30.04,0,0.0,0.0,0.0,0.0,0.0,0,0.0,0.0
90.51,4.81,137.5,194.31,-1.0,0.0,16.65,0.09,30.04,0,0.0,0.0,0.0,0.0,0.0,0,0.0,0.0
90.71,4.81,137.5,194.31,-1.0,0.0,16.63,0.05,30.04,0,0.0,0.0,0.0,0.0,0.0,0,0.0,0.0
90.91,4.81,137.5,194.31,-1.0,0.0,16.58,-0.0,30.04,0,0.0,0.0,0.0,0.0,0.0,0,0.0,0.0
91.11,4.81,137.5,194.31,-1.0,0.0,16.66,0.06,30.04,0,0.0,0.0,0.0,0.0,0.0,0,0.0,0.0
91.31,4.81,137.5,194.31,-1.0,0.0,16.63,0.03,30.04,0,0.0,0.0,0.0,0.0,0.0,0,0.0,0.0
91.51,4.81,137.5,194.31,-1.0,0.0,16.64,0.03,30.04,0,0.0,0.0,0.0,0.0,0.0,0,0.0,0.0
91.71,4.81,137.5,194.31,-1.0,0.0,16.65,0.03,30.04,0,0.0,0.0,0.0,0.0,0.0,0,0.0,0.0
91.91,4.81,137.5,194.31,-1.0,0.0,16.65,0.03,30.04,0,0.0,0.0,0.0,0.0,0.0,0,0.0,0.0
92.11,4.81,137.5,194.31,-1.0,0.0,16.65,0.02,30.04,0,0.0,0.0,0.0,0.0,0.0,0,0.0,0.0
92.31,4.81,137.5,194.31,-1.0,0.0,16.66,0.03,30.04,0,0.0,0.0,0.0,0.0,0.0,0,0.0,0.0
92.51,4.81,137.5,194.31,-1.0,0.0,16.59,-0.05,30.04,0,0.0,0.0,0.0,0.0,0.0,0,0.0,0.0
92.71,4.81,137.5,194.31,-1.0,0.0,16.57,-0.05,30.04,0,0.0,0.0,0.0,0.0,0.0,0,0.0,0.0
92.91,4.81,137.5,194.31,-1.0,0.0,16.56,-0.05,30.04,0,0.0,0.0,0.0,0.0,0.0,0,0.0,0.0
93.11,4.81,137.5,194.31,-1.0,0.0,16.56,-0.04,30.04,0,0.0,0.0,0.0,0.0,0.0,0,0.0,0.0
93.31,4.81,137.5,194.31,-1.0,0.0,16.58,-0.01,30.04,0,0.0,0.0,0.0,0.0,0.0,0,0.0,0.0
93.51,4.81,137.5,194.31,-1.0,0.0,16.59,-0.01,30.04,0,0.0,0.0,0.0,0.0,0.0,0,0.0,0.0
93.71,4.81,137.5,194.31,-1.0,0.0,16.55,-0.04,30.04,0,0.0,0.0,0.0,0.0,0.0,0,0.0,0.0
93.91,4.81,137.5,194.31,-1.0,0.0,16.6,0.02,30.04,0,0.0,0.0,0.0,0.0,0.0,0,0.0,0.0
94.11,4.81,137.5,194.31,-1.0,0.0,16.6,0.01,30.04,0,0.0,0.0,0.0,0.0,0.0,0,0.0,0.0
94.31,4.81,137.5,194.31,-1.0,0.0,16.59,-0.01,30.04,0,0.0,0.0,0.0,0.0,0.0,0,0.0,0.0
94.51,4.81,137.5,194.31,-1.0,0.0,16.63,0.03,30.04,0,0.0,0.0,0.0,0.0,0.0,0,0.0,0.0
94.71,4.81,137.5,194.31,-1.0,0.0,16.62,0.01,30.04,0,0.0,0.0,0.0,0.0,0.0,0,0.0,0.0
94.913,4.81,137.5,194.31,-1.0,0.0,16.61,0.01,30.04,0,0.0,0.0,0.0,0.0,0.0,0,0.0,0.0
95.113,4.81,137.5,194.31,-1.0,0.0,16.61,0.0,30.04,0,0.0,0.0,0.0,0.0,0.0,0,0.0,0.0
95.313,4.81,137.5,194.31,-1.0,0.0,16.59,-0.02,30.04,0,0.0,0.0,0.0,0.0,0.0,0,0.0,0.0
95.514,4.81,137.5,194.31,-1.0,0.0,16.55,-0.05,30.04,0,0.0,0.0,0.0,0.0,0.0,0,0.0,0.0
95.714,4.81,137.5,194.31,-1.0,0.0,16.55,-0.04,30.04,0,0.0,0.0,0.0,0.0,0.0,0,0.0,0.0
95.914,4.81,137.5,194.31,-1.0,0.0,16.58,-0.01,30.04,0,0.0,0.0,0.0,0.0,0.0,0,0.0,0.0
96.114,4.81,137.5,194.31,-1.0,0.0,16.58,-0.0,30.04,0,0.0,0.0,0.0,0.0,0.0,0,0.0,0.0
96.314,4.81,137.5,194.31,-1.0,0.0,16.63,0.04,30.04,0,0.0,0.0,0.0,0.0,0.0,0,0.0,0.0
96.514,4.81,137.5,194.31,-1.0,0.0,16.6,0.0,30.04,0,0.0,0.0,0.0,0.0,0.0,0,0.0,0.0
96.714,4.81,137.5,194.31,-1.0,0.0,16.6,0.01,30.04,0,0.0,0.0,0.0,0.0,0.0,0,0.0,0.0
96.914,4.81,137.5,194.31,-1.0,0.0,16.6,0.0,30.04,0,0.0,0.0,0.0,0.0,0.0,0,0.0,0.0
97.114,4.81,137.5,194.31,-1.0,0.0,16.63,0.03,30.04,0,0.0,0.0,0.0,0.0,0.0,0,0.0,0.0
97.314,4.81,137.5,194.31,-1.0,0.0,16.62,0.02,30.04,0,0.0,0.0,0.0,0.0,0.0,0,0.0,0.0
97.514,4.81,137.5,194.31,-1.0,0.0,16.65,0.04,30.04,0,0.0,0.0,0.0,0.0,0.0,0,0.0,0.0
97.714,4.81,137.5,194.31,-1.0,0.0,16.63,0.02,30.04,0,0.0,0.0,0.0,0.0,0.0,0,0.0,0.0
97.914,4.81,137.5,194.31,-1.0,0.0,16.63,0.01,30.04,0,0.0,0.0,0.0,0.0,0.0,0,0.0,0.0
98.114,4.81,137.5,194.31,-1.0,0.0,16.66,0.03,30.04,0,0.0,0.0,0.0,0.0,0.0,0,0.0,0.0
98.314,4.81,137.5,194.31,-1.0,0.0,16.68,0.05,30.04,0,0.0,0.0,0.0,0.0,0.0,0,0.0,0.0
98.514,4.81,137.5,194.31,-1.0,0.0,16.66,0.02,30.04,0,0.0,0.0,0.0,0.0,0.0,0,0.0,0.0
98.714,4.81,137.5,194.31,-1.0,0.0,16.64,-0.0,30.04,0,0.0,0.0,0.0,0.0,0.0,0,0.0,0.0
98.914,4.81,137.5,194.31,-1.0,0.0,16.62,-0.02,30.04,0,0.0,0.0,0.0,0.0,0.0,0,0.0,0.0
99.114,4.81,137.5,194.31,-1.0,0.0,16.61,-0.03,30.04,0,0.0,0.0,0.0,0.0,0.0,0,0.0,0.0
99.314,4.81,137.5,194.31,-1.0,0.0,16.58,-0.05,30.04,0,0.0,0.0,0.0,0.0,0.0,0,0.0,0.0
99.514,4.81,137.5,194.31,-1.0,0.0,16.52,-0.09,30.04,0,0.0,0.0,0.0,0.0,0.0,0,0.0,0.0
99.714,4.81,137.5,194.31,-1.0,0.0,16.52,-0.08,30.04,0,0.0,0.0,0.0,0.0,0.0,0,0.0,0.0
99.914,4.81,137.5,194.31,-1.0,0.0,16.48,-0.1,30.04,0,0.0,0.0,0.0,0.0,0.0,0,0.0,0.0
100.114,4.81,137.5,194.31,-1.0,0.0,16.52,-0.05,30.04,0,0.0,0.0,0.0,0.0,0.0,0,0.0,0.0
100.314,4.81,137.5,194.31,-1.0,0.0,16.53,-0.02,30.04,0,0.0,0.0,0.0,0.0,0.0,0,0.0,0.0
100.514,4.81,137.5,194.31,-1.0,0.0,16.56,0.0,30.04,0,0.0,0.0,0.0,0.0,0.0,0,0.0,0.0
100.714,4.81,137.5,194.31,-1.0,0.0,16.59,0.04,30.04,0,0.0,0.0,0.0,0.0,0.0,0,0.0,0.0
100.914,4.81,137.5,194.31,-1.0,0.0,16.58,0.02,30.04,0,0.0,0.0,0.0,0.0,0.0,0,0.0,0.0
101.114,4.81,137.5,194.31,-1.0,0.0,16.58,0.01,30.04,0,0.0,0.0,0.0,0.0,0.0,0,0.0,0.0
101.314,4.81,137.5,194.31,-1.0,0.0,16.59,0.02,30.04,0,0.0,0.0,0.0,0.0,0.0,0,0.0,0.0
101.514,4.81,137.5,194.31,-1.0,0.0,16.57,0.0,30.04,0,0.0,0.0,0.0,0.0,0.0,0,0.0,0.0
101.714,4.81,137.5,194.31,-1.0,0.0,16.59,0.02,30.04,0,0.0,0.0,0.0,0.0,0.0,0,0.0,0.0
101.914,4.81,137.5,194.31,-1.0,0.0,16.55,-0.03,30.04,0,0.0,0.0,0.0,0.0,0.0,0,0.0,0.0
102.114,4.81,137.5,194.31,-1.0,0.0,16.6,0.03,30.04,0,0.0,0.0,0.0,0.0,0.0,0,0.0,0.0
102.314,4.81,137.5,194.31,-1.0,0.0,16.61,0.03,30.04,0,0.0,0.0,0.0,0.0,0.0,0,0.0,0.0
102.514,4.81,137.5,194.31,-1.0,0.0,16.55,-0.03,30.04,0,0.0,0.0,0.0,0.0,0.0,0,0.0,0.0
102.714,4.81,137.5,194.31,-1.0,0.0,16.56,-0.01,30.04,0,0.0,0.0,0.0,0.0,0.0,0,0.0,0.0
102.914,4.81,137.5,194.31,-1.0,0.0,16.57,0.0,30.04,0,0.0,0.0,0.0,0.0,0.0,0,0.0,0.0
103.114,4.81,137.5,194.31,-1.0,0.0,16.56,-0.01,30.04,0,0.0,0.0,0.0,0.0,0.0,0,0.0,0.0
103.314,4.81,137.5,194.31,-1.0,0.0,16.57,0.01,30.04,0,0.0,0.0,0.0,0.0,0.0,0,0.0,0.0
103.514,4.81,137.5,194.31,-1.0,0.0,16.61,0.04,30.04,0,0.0,0.0,0.0,0.0,0.0,0,0.0,0.0
103.714,4.81,137.5,194.31,-1.0,0.0,16.59,0.02,30.04,0,0.0,0.0,0.0,0.0,0.0,0,0.0,0.0
103.914,4.81,137.5,194.31,-1.0,0.0,16.57,-0.01,30.04,0,0.0,0.0,0.0,0.0,0.0,0,0.0,0.0
104.114,4.81,137.5,194.31,-1.0,0.0,16.61,0.03,30.04,0,0.0,0.0,0.0,0.0,0.0,0,0.0,0.0
104.314,4.81,137.5,194.31,-1.0,0.0,16.59,0.01,30.04,0,0.0,0.0,0.0,0.0,0.0,0,0.0,0.0
104.514,4.81,137.5,194.31,-1.0,0.0,16.59,0.0,30.04,0,0.0,0.0,0.0,0.0,0.0,0,0.0,0.0
104.714,4.81,137.5,194.31,-1.0,0.0,16.64,0.05,30.04,0,0.0,0.0,0.0,0.0,0.0,0,0.0,0.0
104.914,4.81,137.5,194.31,-1.0,0.0,16.64,0.04,30.04,0,0.0,0.0,0.0,0.0,0.0,0,0.0,0.0
105.114,4.81,137.5,194.31,-1.0,0.0,16.66,0.05,30.04,0,0.0,0.0,0.0,0.0,0.0,0,0.0,0.0
105.314,4.81,137.5,194.31,-1.0,0.0,16.63,0.01,30.04,0,0.0,0.0,0.0,0.0,0.0,0,0.0,0.0
105.514,4.81,137.5,194.31,-1.0,0.0,16.61,-0.02,30.04,0,0.0,0.0,0.0,0.0,0.0,0,0.0,0.0
105.714,4.81,137.5,194.31,-1.0,0.0,16.6,-0.02,30.04,0,0.0,0.0,0.0,0.0,0.0,0,0.0,0.0
105.914,4.81,137.5,194.31,-1.0,0.0,16.59,-0.02,30.04,0,0.0,0.0,0.0,0.0,0.0,0,0.0,0.0
106.114,4.81,137.5,194.31,-1.0,0.0,16.62,0.01,30.04,0,0.0,0.0,0.0,0.0,0.0,0,0.0,0.0
106.314,4.81,137.5,194.31,-1.0,0.0,16.62,0.01,30.04,0,0.0,0.0,0.0,0.0,0.0,0,0.0,0.0
106.514,4.81,137.5,194.31,-1.0,0.0,16.6,-0.01,30.04,0,0.0,0.0,0.0,0.0,0.0,0,0.0,0.0
106.714,4.81,137.5,194.31,-1.0,0.0,16.65,0.04,30.04,0,0.0,0.0,0.0,0.0,0.0,0,0.0,0.0
106.914,4.81,137.5,194.31,-1.0,0.0,16.72,0.09,30.04,0,0.0,0.0,0.0,0.0,0.0,0,0.0,0.0
107.114,4.81,137.5,194.31,-1.0,0.0,16.69,0.05,30.04,0,0.0,0.0,0.0,0.0,0.0,0,0.0,0.0
107.314,4.81,137.5,194.31,-1.0,0.0,16.68,0.03,30.04,0,0.0,0.0,0.0,0.0,0.0,0,0.0,0.0
107.514,4.81,137.5,194.31,-1.0,0.0,16.72,0.06,30.04,0,0.0,0.0,0.0,0.0,0.0,0,0.0,0.0
107.714,4.81,137.5,194.31,-1.0,0.0,16.71,0.04,30.04,0,0.0,0.0,0.0,0.0,0.0,0,0.0,0.0
107.914,4.81,137.5,194.31,-1.0,0.0,16.67,-0.01,30.04,0,0.0,0.0,0.0,0.0,0.0,0,0.0,0.0
108.114,4.81,137.5,194.31,-1.0,0.0,16.64,-0.03,30.04,0,0.0,0.0,0.0,0.0,0.0,0,0.0,0.0
108.314,4.81,137.5,194.31,-1.0,0.0,16.66,-0.01,30.04,0,0.0,0.0,0.0,0.0,0.0,0,0.0,0.0
108.514,4.81,137.5,194.31,-1.0,0.0,16.68,0.01,30.04,0,0.0,0.0,0.0,0.0,0.0,0,0.0,0.0
108.714,4.81,137.5,194.31,-1.0,0.0,16.61,-0.05,30.04,0,0.0,0.0,0.0,0.0,0.0,0,0.0,0.0
108.914,4.81,137.5,194.31,-1.0,0.0,16.63,-0.03,30.04,0,0.0,0.0,0.0,0.0,0.0,0,0.0,0.0
109.114,4.81,137.5,194.31,-1.0,0.0,16.57,-0.07,30.04,0,0.0,0.0,0.0,0.0,0.0,0,0.0,0.0
109.314,4.81,137.5,194.31,-1.0,0.0,16.6,-0.03,30.04,0,0.0,0.0,0.0,0.0,0.0,0,0.0,0.0
109.514,4.81,137.5,194.31,-1.0,0.0,16.58,-0.05,30.04,0,0.0,0.0,0.0,0.0,0.0,0,0.0,0.0
109.714,4.81,137.5,194.31,-1.0,0.0,16.63,0.0,30.04,0,0.0,0.0,0.0,0.0,0.0,0,0.0,0.0
109.914,4.81,137.5,194.31,-1.0,0.0,16.59,-0.03,30.04,0,0.0,0.0,0.0,0.0,0.0,0,0.0,0.0
110.114,4.81,137.5,194.31,-1.0,0.0,16.58,-0.04,30.04,0,0.0,0.0,0.0,0.0,0.0,0,0.0,0.0
110.314,4.81,137.5,194.31,-1.0,0.0,16.66,0.05,30.04,0,0.0,0.0,0.0,0.0,0.0,0,0.0,0.0
110.514,4.81,137.5,194.31,-1.0,0.0,16.63,0.01,30.04,0,0.0,0.0,0.0,0.0,0.0,0,0.0,0.0
110.714,4.81,137.5,194.31,-1.0,0.0,16.62,-0.01,30.04,0,0.0,0.0,0.0,0.0,0.0,0,0.0,0.0
110.914,4.81,137.5,194.31,-1.0,0.0,16.63,0.0,30.04,0,0.0,0.0,0.0,0.0,0.0,0,0.0,0.0
111.114,4.81,137.5,194.31,-1.0,0.0,16.6,-0.02,30.04,0,0.0,0.0,0.0,0.0,0.0,0,0.0,0.0
111.314,4.81,137.5,194.31,-1.0,0.0,16.66,0.04,30.04,0,0.0,0.0,0.0,0.0,0.0,0,0.0,0.0
111.514,4.81,137.5,194.31,-1.0,0.0,16.68,0.05,30.04,0,0.0,0.0,0.0,0.0,0.0,0,0.0,0.0
111.714,4.81,137.5,194.31,-1.0,0.0,16.67,0.03,30.04,0,0.0,0.0,0.0,0.0,0.0,0,0.0,0.0
111.914,4.81,137.5,194.31,-1.0,0.0,16.67,0.03,30.04,0,0.0,0.0,0.0,0.0,0.0,0,0.0,0.0
112.114,4.81,137.5,194.31,-1.0,0.0,16.68,0.03,30.05,0,0.0,0.0,0.0,0.0,0.0,0,0.0,0.0
112.314,4.81,137.5,194.31,-1.0,0.0,16.69,0.03,30.04,0,0.0,0.0,0.0,0.0,0.0,0,0.0,0.0
112.514,4.81,137.5,194.31,-1.0,0.0,16.66,-0.01,30.05,0,0.0,0.0,0.0,0.0,0.0,0,0.0,0.0
112.714,4.81,137.5,194.31,-1.0,0.0,16.69,0.03,30.05,0,0.0,0.0,0.0,0.0,0.0,0,0.0,0.0
112.914,4.81,137.5,194.31,-1.0,0.0,16.7,0.03,30.05,0,0.0,0.0,0.0,0.0,0.0,0,0.0,0.0
113.114,4.81,137.5,194.31,-1.0,0.0,16.66,-0.01,30.05,0,0.0,0.0,0.0,0.0,0.0,0,0.0,0.0
113.314,4.81,137.5,194.31,-1.0,0.0,16.69,0.02,30.05,0,0.0,0.0,0.0,0.0,0.0,0,0.0,0.0
113.514,4.81,137.5,194.31,-1.0,0.0,16.69,0.01,30.05,0,0.0,0.0,0.0,0.0,0.0,0,0.0,0.0
113.714,4.81,137.5,194.31,-1.0,0.0,16.65,-0.02,30.05,0,0.0,0.0,0.0,0.0,0.0,0,0.0,0.0
113.914,4.81,137.5,194.31,-1.0,0.0,16.65,-0.03,30.05,0,0.0,0.0,0.0,0.0,0.0,0,0.0,0.0
114.114,4.81,137.5,194.31,-1.0,0.0,16.63,-0.04,30.05,0,0.0,0.0,0.0,0.0,0.0,0,0.0,0.0
114.314,4.81,137.5,194.31,-1.0,0.0,16.66,-0.0,30.05,0,0.0,0.0,0.0,0.0,0.0,0,0.0,0.0
114.514,4.81,137.5,194.31,-1.0,0.0,16.69,0.02,30.05,0,0.0,0.0,0.0,0.0,0.0,0,0.0,0.0
114.714,4.81,137.5,194.31,-1.0,0.0,16.72,0.05,30.05,0,0.0,0.0,0.0,0.0,0.0,0,0.0,0.0
114.914,4.81,137.5,194.31,-1.0,0.0,16.7,0.02,30.05,0,0.0,0.0,0.0,0.0,0.0,0,0.0,0.0
115.114,4.81,137.5,194.31,-1.0,0.0,16.71,0.02,30.05,0,0.0,0.0,0.0,0.0,0.0,0,0.0,0.0
115.314,4.81,137.5,194.31,-1.0,0.0,16.63,-0.06,30.05,0,0.0,0.0,0.0,0.0,0.0,0,0.0,0.0
115.514,4.81,137.5,194.31,-1.0,0.0,16.62,-0.05,30.05,0,0.0,0.0,0.0,0.0,0.0,0,0.0,0.0
115.714,4.81,137.5,194.31,-1.0,0.0,16.63,-0.03,30.05,0,0.0,0.0,0.0,0.0,0.0,0,0.0,0.0
115.914,4.81,137.5,194.31,-1.0,0.0,16.63,-0.03,30.05,0,0.0,0.0,0.0,0.0,0.0,0,0.0,0.0
116.114,4.81,137.5,194.31,-1.0,0.0,16.66,0.0,30.05,0,0.0,0.0,0.0,0.0,0.0,0,0.0,0.0
116.314,4.81,137.5,194.31,-1.0,0.0,16.68,0.03,30.05,0,0.0,0.0,0.0,0.0,0.0,0,0.0,0.0
116.514,4.81,137.5,194.31,-1.0,0.0,16.68,0.02,30.05,0,0.0,0.0,0.0,0.0,0.0,0,0.0,0.0
116.714,4.81,137.5,194.31,-1.0,0.0,16.65,-0.01,30.05,0,0.0,0.0,0.0,0.0,0.0,0,0.0,0.0
116.914,4.81,137.5,194.31,-1.0,0.0,16.63,-0.03,30.05,0,0.0,0.0,0.0,0.0,0.0,0,0.0,0.0
117.114,4.81,137.5,194.31,-1.0,0.0,16.65,-0.01,30.05,0,0.0,0.0,0.0,0.0,0.0,0,0.0,0.0
117.314,4.81,137.5,194.31,-1.0,0.0,16.7,0.04,30.05,0,0.0,0.0,0.0,0.0,0.0,0,0.0,0.0
117.514,4.81,137.5,194.31,-1.0,0.0,16.71,0.04,30.05,0,0.0,0.0,0.0,0.0,0.0,0,0.0,0.0
117.714,4.81,137.5,194.31,-1.0,0.0,16.69,0.02,30.05,0,0.0,0.0,0.0,0.0,0.0,0,0.0,0.0
117.914,4.81,137.5,194.31,-1.0,0.0,16.69,0.01,30.05,0,0.0,0.0,0.0,0.0,0.0,0,0.0,0.0
118.114,4.81,137.5,194.31,-1.0,0.0,16.79,0.11,30.05,0,0.0,0.0,0.0,0.0,0.0,0,0.0,0.0
118.314,4.81,137.5,194.31,-1.0,0.0,16.85,0.15,30.05,0,0.0,0.0,0.0,0.0,0.0,0,0.0,0.0
118.514,4.81,137.5,194.31,-1.0,0.0,16.85,0.11,30.06,0,0.0,0.0,0.0,0.0,0.0,0,0.0,0.0
118.714,4.81,137.5,194.31,-1.0,0.0,16.86,0.11,30.06,0,0.0,0.0,0.0,0.0,0.0,0,0.0,0.0
118.914,4.81,137.5,194.31,-1.0,0.0,16.81,0.04,30.06,0,0.0,0.0,0.0,0.0,0.0,0,0.0,0.0
119.114,4.81,137.5,194.31,-1.0,0.0,16.75,-0.03,30.06,0,0.0,0.0,0.0,0.0,0.0,0,0.0,0.0
119.314,4.81,137.5,194.31,-1.0,0.0,16.81,0.03,30.06,0,0.0,0.0,0.0,0.0,0.0,0,0.0,0.0
119.514,4.81,137.5,194.31,-1.0,0.0,16.77,-0.01,30.06,0,0.0,0.0,0.0,0.0,0.0,0,0.0,0.0
119.714,4.81,137.5,194.31,-1.0,0.0,16.77,-0.01,30.06,0,0.0,0.0,0.0,0.0,0.0,0,0.0,0.0
119.914,4.81,137.5,194.31,-1.0,0.0,16.73,-0.04,30.06,0,0.0,0.0,0.0,0.0,0.0,0,0.0,0.0
120.114,4.81,137.5,194.31,-1.0,0.0,16.76,-0.01,30.06,0,0.0,0.0,0.0,0.0,0.0,0,0.0,0.0
120.314,4.81,137.5,194.31,-1.0,0.0,16.81,0.05,30.06,0,0.0,0.0,0.0,0.0,0.0,0,0.0,0.0
120.514,4.81,137.5,194.31,-1.0,0.0,16.79,0.01,30.06,0,0.0,0.0,0.0,0.0,0.0,0,0.0,0.0
120.714,4.81,137.5,194.31,-1.0,0.0,16.81,0.03,30.06,0,0.0,0.0,0.0,0.0,0.0,0,0.0,0.0
120.914,4.81,137.5,194.31,-1.0,0.0,16.74,-0.04,30.06,0,0.0,0.0,0.0,0.0,0.0,0,0.0,0.0
121.114,4.81,137.5,194.31,-1.0,0.0,16.77,0.0,30.06,0,0.0,0.0,0.0,0.0,0.0,0,0.0,0.0
121.314,4.81,137.5,194.31,-1.0,0.0,16.77,-0.0,30.06,0,0.0,0.0,0.0,0.0,0.0,0,0.0,0.0
121.514,4.81,137.5,194.31,-1.0,0.0,16.73,-0.04,30.06,0,0.0,0.0,0.0,0.0,0.0,0,0.0,0.0
121.714,4.81,137.5,194.31,-1.0,0.0,16.73,-0.03,30.06,0,0.0,0.0,0.0,0.0,0.0,0,0.0,0.0
121.914,4.81,137.5,194.31,-1.0,0.0,16.78,0.02,30.06,0,0.0,0.0,0.0,0.0,0.0,0,0.0,0.0
122.114,4.81,137.5,194.31,-1.0,0.0,16.84,0.07,30.06,0,0.0,0.0,0.0,0.0,0.0,0,0.0,0.0
122.314,4.81,137.5,194.31,-1.0,0.0,16.87,0.09,30.06,0,0.0,0.0,0.0,0.0,0.0,0,0.0,0.0
122.514,4.81,137.5,194.31,-1.0,0.0,16.86,0.06,30.06,0,0.0,0.0,0.0,0.0,0.0,0,0.0,0.0
122.714,4.81,137.5,194.31,-1.0,0.0,16.87,0.06,30.06,0,0.0,0.0,0.0,0.0,0.0,0,0.0,0.0
122.914,4.81,137.5,194.31,-1.0,0.0,16.88,0.06,30.06,0,0.0,0.0,0.0,0.0,0.0,0,0.0,0.0
123.114,4.81,137.5,194.31,-1.0,0.0,16.89,0.05,30.06,0,0.0,0.0,0.0,0.0,0.0,0,0.0,0.0
123.314,4.81,137.5,194.31,-1.0,0.0,16.85,0.01,30.06,0,0.0,0.0,0.0,0.0,0.0,0,0.0,0.0
123.514,4.81,137.5,194.31,-1.0,0.0,16.88,0.04,30.06,0,0.0,0.0,0.0,0.0,0.0,0,0.0,0.0
123.714,4.81,137.5,194.31,-1.0,0.0,16.89,0.04,30.06,0,0.0,0.0,0.0,0.0,0.0,0,0.0,0.0
123.914,4.81,137.5,194.31,-1.0,0.0,16.94,0.08,30.06,0,0.0,0.0,0.0,0.0,0.0,0,0.0,0.0
124.114,4.81,137.5,194.31,-1.0,0.0,16.9,0.03,30.06,0,0.0,0.0,0.0,0.0,0.0,0,0.0,0.0
124.314,4.81,137.5,194.31,-1.0,0.0,16.87,-0.0,30.06,0,0.0,0.0,0.0,0.0,0.0,0,0.0,0.0
124.514,4.81,137.5,194.31,-1.0,0.0,16.85,-0.02,30.06,0,0.0,0.0,0.0,0.0,0.0,0,0.0,0.0
124.714,4.81,137.5,194.31,-1.0,0.0,16.9,0.02,30.06,0,0.0,0.0,0.0,0.0,0.0,0,0.0,0.0
124.914,4.81,137.5,194.31,-1.0,0.0,16.88,0.0,30.06,0,0.0,0.0,0.0,0.0,0.0,0,0.0,0.0
125.114,4.81,137.5,194.31,-1.0,0.0,16.89,0.01,30.06,0,0.0,0.0,0.0,0.0,0.0,0,0.0,0.0
125.314,4.81,137.5,194.31,-1.0,0.0,16.92,0.04,30.06,0,0.0,0.0,0.0,0.0,0.0,0,0.0,0.0
125.514,4.81,137.5,194.31,-1.0,0.0,16.88,-0.01,30.06,0,0.0,0.0,0.0,0.0,0.0,0,0.0,0.0
125.714,4.81,137.5,194.31,-1.0,0.0,16.89,-0.0,30.06,0,0.0,0.0,0.0,0.0,0.0,0,0.0,0.0
125.914,4.81,137.5,194.31,-1.0,0.0,16.88,-0.01,30.06,0,0.0,0.0,0.0,0.0,0.0,0,0.0,0.0
126.114,4.81,137.5,194.31,-1.0,0.0,16.89,0.01,30.06,0,0.0,0.0,0.0,0.0,0.0,0,0.0,0.0
126.314,4.81,137.5,194.31,-1.0,0.0,16.82,-0.07,30.06,0,0.0,0.0,0.0,0.0,0.0,0,0.0,0.0
126.515,4.81,137.5,194.31,-1.0,0.0,16.89,0.01,30.07,0,0.0,0.0,0.0,0.0,0.0,0,0.0,0.0
126.715,4.81,137.5,194.31,-1.0,0.0,16.9,0.02,30.07,0,0.0,0.0,0.0,0.0,0.0,0,0.0,0.0
126.915,4.81,137.5,194.31,-1.0,0.0,16.86,-0.02,30.07,0,0.0,0.0,0.0,0.0,0.0,0,0.0,0.0
127.115,4.81,137.5,194.31,-1.0,0.0,16.81,-0.06,30.07,0,0.0,0.0,0.0,0.0,0.0,0,0.0,0.0
127.315,4.81,137.5,194.31,-1.0,0.0,16.83,-0.03,30.07,0,0.0,0.0,0.0,0.0,0.0,0,0.0,0.0
127.515,4.81,137.5,194.31,-1.0,0.0,16.8,-0.06,30.07,0,0.0,0.0,0.0,0.0,0.0,0,0.0,0.0
127.715,4.81,137.5,194.31,-1.0,0.0,16.79,-0.05,30.07,0,0.0,0.0,0.0,0.0,0.0,0,0.0,0.0
127.915,4.81,137.5,194.31,-1.0,0.0,16.83,-0.01,30.07,0,0.0,0.0,0.0,0.0,0.0,0,0.0,0.0
128.115,4.81,137.5,194.31,-1.0,0.0,16.85,0.01,30.07,0,0.0,0.0,0.0,0.0,0.0,0,0.0,0.0
128.315,4.81,137.5,194.31,-1.0,0.0,16.88,0.04,30.07,0,0.0,0.0,0.0,0.0,0.0,0,0.0,0.0
128.515,4.81,137.5,194.31,-1.0,0.0,16.92,0.07,30.07,0,0.0,0.0,0.0,0.0,0.0,0,0.0,0.0
128.715,4.81,137.5,194.31,-1.0,0.0,16.87,0.01,30.07,0,0.0,0.0,0.0,0.0,0.0,0,0.0,0.0
128.915,4.81,137.5,194.31,-1.0,0.0,16.87,0.01,30.07,0,0.0,0.0,0.0,0.0,0.0,0,0.0,0.0
129.115,4.81,137.5,194.31,-1.0,0.0,16.94,0.07,30.07,0,0.0,0.0,0.0,0.0,0.0,0,0.0,0.0
129.315,4.81,137.5,194.31,-1.0,0.0,16.86,-0.02,30.07,0,0.0,0.0,0.0,0.0,0.0,0,0.0,0.0
129.515,4.81,137.5,194.31,-1.0,0.0,16.9,0.03,30.07,0,0.0,0.0,0.0,0.0,0.0,0,0.0,0.0
129.715,4.81,137.5,194.31,-1.0,0.0,16.9,0.02,30.07,0,0.0,0.0,0.0,0.0,0.0,0,0.0,0.0
129.915,4.81,137.5,194.31,-1.0,0.0,16.9,0.02,30.07,0,0.0,0.0,0.0,0.0,0.0,0,0.0,0.0
130.115,4.81,137.5,194.31,-1.0,0.0,16.88,-0.01,30.07,0,0.0,0.0,0.0,0.0,0.0,0,0.0,0.0
130.315,4.81,137.5,194.31,-1.0,0.0,16.92,0.04,30.07,0,0.0,0.0,0.0,0.0,0.0,0,0.0,0.0
130.515,4.81,137.5,194.31,-1.0,0.0,16.94,0.05,30.07,0,0.0,0.0,0.0,0.0,0.0,0,0.0,0.0
130.715,4.81,137.5,194.31,-1.0,0.0,16.9,0.01,30.07,0,0.0,0.0,0.0,0.0,0.0,0,0.0,0.0
130.915,4.81,137.5,194.31,-1.0,0.0,16.9,0.01,30.07,0,0.0,0.0,0.0,0.0,0.0,0,0.0,0.0
131.115,4.81,137.5,194.31,-1.0,0.0,16.93,0.03,30.07,0,0.0,0.0,0.0,0.0,0.0,0,0.0,0.0
131.315,4.81,137.5,194.31,-1.0,0.0,16.91,0.01,30.07,0,0.0,0.0,0.0,0.0,0.0,0,0.0,0.0
131.515,4.81,137.5,194.31,-1.0,0.0,16.9,-0.01,30.07,0,0.0,0.0,0.0,0.0,0.0,0,0.0,0.0
131.715,4.81,137.5,194.31,-1.0,0.0,16.87,-0.03,30.07,0,0.0,0.0,0.0,0.0,0.0,0,0.0,0.0
131.915,4.81,137.5,194.31,-1.0,0.0,16.83,-0.07,30.07,0,0.0,0.0,0.0,0.0,0.0,0,0.0,0.0
132.115,4.81,137.5,194.31,-1.0,0.0,16.82,-0.06,30.07,0,0.0,0.0,0.0,0.0,0.0,0,0.0,0.0
132.315,4.81,137.5,194.31,-1.0,0.0,16.84,-0.03,30.07,0,0.0,0.0,0.0,0.0,0.0,0,0.0,0.0
132.515,4.81,137.5,194.31,-1.0,0.0,16.83,-0.04,30.07,0,0.0,0.0,0.0,0.0,0.0,0,0.0,0.0
132.715,4.81,137.5,194.31,-1.0,0.0,16.8,-0.05,30.07,0,0.0,0.0,0.0,0.0,0.0,0,0.0,0.0
132.915,4.81,137.5,194.31,-1.0,0.0,16.81,-0.03,30.07,0,0.0,0.0,0.0,0.0,0.0,0,0.0,0.0
133.115,4.81,137.5,194.31,-1.0,0.0,16.88,0.03,30.07,0,0.0,0.0,0.0,0.0,0.0,0,0.0,0.0
133.315,4.81,137.5,194.31,-1.0,0.0,16.89,0.04,30.07,0,0.0,0.0,0.0,0.0,0.0,0,0.0,0.0
133.515,4.81,137.5,194.31,-1.0,0.0,16.93,0.07,30.07,0,0.0,0.0,0.0,0.0,0.0,0,0.0,0.0
133.715,4.81,137.5,194.31,-1.0,0.0,16.93,0.06,30.07,0,0.0,0.0,0.0,0.0,0.0,0,0.0,0.0
133.915,4.81,137.5,194.31,-1.0,0.0,16.89,0.01,30.07,0,0.0,0.0,0.0,0.0,0.0,0,0.0,0.0
134.115,4.81,137.5,194.31,-1.0,0.0,16.82,-0.06,30.07,0,0.0,0.0,0.0,0.0,0.0,0,0.0,0.0
134.315,4.81,137.5,194.31,-1.0,0.0,16.81,-0.06,30.07,0,0.0,0.0,0.0,0.0,0.0,0,0.0,0.0
134.515,4.81,137.5,194.31,-1.0,0.0,16.83,-0.03,30.07,0,0.0,0.0,0.0,0.0,0.0,0,0.0,0.0
134.715,4.81,137.5,194.31,-1.0,0.0,16.86,0.0,30.07,0,0.0,0.0,0.0,0.0,0.0,0,0.0,0.0
134.915,4.81,137.5,194.31,-1.0,0.0,16.8,-0.05,30.07,0,0.0,0.0,0.0,0.0,0.0,0,0.0,0.0
135.115,4.81,137.5,194.31,-1.0,0.0,16.8,-0.04,30.07,0,0.0,0.0,0.0,0.0,0.0,0,0.0,0.0
135.315,4.81,137.5,194.31,-1.0,0.0,16.8,-0.03,30.07,0,0.0,0.0,0.0,0.0,0.0,0,0.0,0.0
135.515,4.81,137.5,194.31,-1.0,0.0,16.83,0.0,30.07,0,0.0,0.0,0.0,0.0,0.0,0,0.0,0.0
135.715,4.81,137.5,194.31,-1.0,0.0,16.83,0.0,30.07,0,0.0,0.0,0.0,0.0,0.0,0,0.0,0.0
135.915,4.81,137.5,194.31,-1.0,0.0,16.91,0.07,30.07,0,0.0,0.0,0.0,0.0,0.0,0,0.0,0.0
136.115,4.81,137.5,194.31,-1.0,0.0,16.87,0.02,30.07,0,0.0,0.0,0.0,0.0,0.0,0,0.0,0.0
136.315,4.81,137.5,194.31,-1.0,0.0,16.85,0.0,30.08,0,0.0,0.0,0.0,0.0,0.0,0,0.0,0.0
136.515,4.81,137.5,194.31,-1.0,0.0,16.91,0.05,30.08,0,0.0,0.0,0.0,0.0,0.0,0,0.0,0.0
136.715,4.81,137.5,194.31,-1.0,0.0,16.91,0.04,30.08,0,0.0,0.0,0.0,0.0,0.0,0,0.0,0.0
136.915,4.81,137.5,194.31,-1.0,0.0,16.92,0.04,30.08,0,0.0,0.0,0.0,0.0,0.0,0,0.0,0.0
137.115,4.81,137.5,194.31,-1.0,0.0,16.9,0.01,30.08,0,0.0,0.0,0.0,0.0,0.0,0,0.0,0.0
137.315,4.81,137.5,194.31,-1.0,0.0,16.9,0.01,30.08,0,0.0,0.0,0.0,0.0,0.0,0,0.0,0.0
137.515,4.81,137.5,194.31,-1.0,0.0,16.88,-0.01,30.08,0,0.0,0.0,0.0,0.0,0.0,0,0.0,0.0
137.715,4.81,137.5,194.31,-1.0,0.0,16.93,0.04,30.08,0,0.0,0.0,0.0,0.0,0.0,0,0.0,0.0
137.915,4.81,137.5,194.31,-1.0,0.0,16.92,0.02,30.08,0,0.0,0.0,0.0,0.0,0.0,0,0.0,0.0
138.115,4.81,137.5,194.31,-1.0,0.0,16.92,0.02,30.08,0,0.0,0.0,0.0,0.0,0.0,0,0.0,0.0
138.315,4.81,137.5,194.31,-1.0,0.0,16.98,0.07,30.08,0,0.0,0.0,0.0,0.0,0.0,0,0.0,0.0
138.515,4.81,137.5,194.31,-1.0,0.0,17.0,0.08,30.08,0,0.0,0.0,0.0,0.0,0.0,0,0.0,0.0
138.715,4.81,137.5,194.31,-1.0,0.0,16.97,0.04,30.08,0,0.0,0.0,0.0,0.0,0.0,0,0.0,0.0
138.915,4.81,137.5,194.31,-1.0,0.0,16.97,0.04,30.08,0,0.0,0.0,0.0,0.0,0.0,0,0.0,0.0
139.115,4.81,137.5,194.31,-1.0,0.0,16.92,-0.02,30.08,0,0.0,0.0,0.0,0.0,0.0,0,0.0,0.0
139.315,4.81,137.5,194.31,-1.0,0.0,16.99,0.05,30.08,0,0.0,0.0,0.0,0.0,0.0,0,0.0,0.0
139.515,4.81,137.5,194.31,-1.0,0.0,17.04,0.09,30.08,0,0.0,0.0,0.0,0.0,0.0,0,0.0,0.0
139.715,4.81,137.5,194.31,-1.0,0.0,16.98,0.02,30.08,0,0.0,0.0,0.0,0.0,0.0,0,0.0,0.0
139.915,4.81,137.5,194.31,-1.0,0.0,16.96,-0.01,30.08,0,0.0,0.0,0.0,0.0,0.0,0,0.0,0.0
140.115,4.81,137.5,194.31,-1.0,0.0,16.95,-0.01,30.08,0,0.0,0.0,0.0,0.0,0.0,0,0.0,0.0
140.315,4.81,137.5,194.31,-1.0,0.0,16.93,-0.03,30.08,0,0.0,0.0,0.0,0.0,0.0,0,0.0,0.0
140.515,4.81,137.5,194.31,-1.0,0.0,16.99,0.04,30.08,0,0.0,0.0,0.0,0.0,0.0,0,0.0,0.0
140.715,4.81,137.5,194.31,-1.0,0.0,17.02,0.05,30.08,0,0.0,0.0,0.0,0.0,0.0,0,0.0,0.0
140.915,4.81,137.5,194.31,-1.0,0.0,16.98,0.0,30.08,0,0.0,0.0,0.0,0.0,0.0,0,0.0,0.0
141.115,4.81,137.5,194.31,-1.0,0.0,17.07,0.09,30.08,0,0.0,0.0,0.0,0.0,0.0,0,0.0,0.0
141.315,4.81,137.5,194.31,-1.0,0.0,16.99,-0.0,30.08,0,0.0,0.0,0.0,0.0,0.0,0,0.0,0.0
141.515,4.81,137.5,194.31,-1.0,0.0,17.02,0.02,30.08,0,0.0,0.0,0.0,0.0,0.0,0,0.0,0.0
141.715,4.81,137.5,194.31,-1.0,0.0,16.98,-0.01,30.08,0,0.0,0.0,0.0,0.0,0.0,0,0.0,0.0
